,date_received,postcode,intent,label,colour,form,consumption_method,effects,major,minor,latitude,longitude
000234320,12 Aug 2025,CF11,Diazepam,Teva,Blue,Tablet,Oral,"Euphoria, Increased Confidence, Relaxed, Memory Loss, Confusion, Suicidal Ideation",Diazepam,,51.48,-3.18
W067706,12 Aug 2025,NE66,Benzo,bensedin,White,Tablet,Not Stated,Not Stated,Diazepam,,55.419943396226415,-1.7907415094339625
W067739,12 Aug 2025,KT4,Diazepam,galenika Bensedin,White,Tablet,Oral,Relaxed,Diazepam,,51.38995,-0.2472
W067731,12 Aug 2025,OX25,Diazepam,Diazepam,Blue,Tablet,Not Stated,Not Stated,Diazepam,,51.9,-1.1536
W067632,12 Aug 2025,SW25,Alprazolam (xanax),Alpraolam,Green,Tablet,Not Stated,Not Stated,Alprazolam,,51.4548,-0.1158
W067844,12 Aug 2025,KY1,valium (diazepam),valium (martin dow),Blue,Tablet,Oral,Euphoria,Diazepam,,56.1345,-3.121411111111111
W067612,12 Aug 2025,SR3,Diazepam,Accord 10mg Diazepam,Blue,Tablet,Not Stated,Not Stated,Diazepam,,54.874233333333336,-1.4153666666666669
W067541,12 Aug 2025,YO23,Xanax,Xanax,White,Tablet,Not Stated,Not Stated,Ethylbromazolam,,53.914883333333336,-1.1672333333333331
W067704,12 Aug 2025,FK5,Diazepam,Diazepam,White,Tablet,Oral,"Euphoria, Increased Confidence, Increased Stamina, Relaxed",Caffeine,Amphetamine,56.0258,-3.823525
W067629,12 Aug 2025,L828,Diazepam,Diazepam,Orange,,Not Stated,No Effect,Diazepam,,,
W067516,12 Aug 2025,PE2,Diazepam,Galenika Bensedin,White,Tablet,Not Stated,Not Stated,Ethylbromazolam,,52.55525,-0.2665666666666667
W067628,12 Aug 2025,LS28,Diazepam,Diazepam,Yellow,Tablet,Oral,"Increased Confidence, Relaxed, Panic Attack, Depression, Suicidal Ideation",Diazepam,,53.81066666666667,-1.6737
000042269,12 Aug 2025,NP22,Diazepam,Not Stated,Pink,Tablet,Not Stated,"Relaxed, Paranoia",Diazepam,,51.7725,-3.2468
W067648,12 Aug 2025,CF44,Diazepam,valium,Blue,Tablet,Oral,"No Effect, Relaxed",Diazepam,,51.7327125,-3.48293125
W067691,12 Aug 2025,GU15,Diazepam 10mg,martin dow,Blue,Tablet,Oral,"Euphoria, Empathy, Relaxed",Diazepam,,51.337,-0.7426
000235577,12 Aug 2025,NP12,valium,valium,Blue,Tablet,Oral,Not Stated,Ethylbromazolam,,51.6678,-3.2075
W067664,12 Aug 2025,CR2,Diazepam,Diazepam,White,Tablet,Not Stated,Not Stated,Diazepam,,51.3359,-0.0778
W067663,12 Aug 2025,CR2,Diazepam,Diazepam,White,Tablet,Not Stated,Not Stated,Diazepam,,51.3359,-0.0778
W067676,12 Aug 2025,OX49,Clonazepam 2mg,Clonazepam tablet,White,Tablet,Oral,"Euphoria, Increased Confidence, Enhanced Senses, Empathy, Relaxed",Clonazepam,,51.6433,-1.0045
W067811,12 Aug 2025,G13,Diazepam,Not Stated,Blue,Tablet,Oral,"Relaxed, Memory Loss, Confusion",Ethylbromazolam,,55.8935,-4.348
000235416,12 Aug 2025,LD1,Daizepam,Diazepam tablet,White,Tablet,Oral,Relaxed,Diazepam,,52.2618,-3.3257903225806453
W067716,12 Aug 2025,SO50,Diazepam,Not Stated,Yellow,Tablet,Not Stated,"Relaxed, Memory Loss",Diazepam,,50.9627,-1.3284714285714287
W067720,12 Aug 2025,CF03,Diazepam,Diazepam,White,,Oral,Not Stated,Diazepam,,,
W067719,12 Aug 2025,CF63,Diazepam,Diazepam,White,Tablet,Not Stated,Not Stated,Alprazolam,,51.4172,-3.2614
W067607,07 Aug 2025,E11,Clonazepam,Clonazepam (celix),White,Tablet,Not Stated,Not Stated,Clonazepam,,51.57656666666667,0.0171666666666666
W067604,07 Aug 2025,SA15,Clonazepam,Clonazepam,White,Tablet,Oral,"Euphoria, Relaxed",Clonazepam,,51.74003,-4.187250000000001
W067673,07 Aug 2025,TS23,Diazepam,Diazepam,Blue,Tablet,Oral,Not Stated,Ethylbromazolam,,54.596666666666664,-1.2684
W067502,07 Aug 2025,RG12,valium,Martin dow,White,Tablet,Oral,Relaxed,Diazepam,,51.4007,-0.7635
W067503,07 Aug 2025,RG12,Valium,martin Dow,White,Tablet,Oral,Relaxed,Diazepam,,51.4007,-0.7635
W067602,07 Aug 2025,CF44,Diazepam,Valium diazepam,Blue,Tablet,Oral,"Increased Confidence, Increased Energy, Enhanced Senses, Relaxed, Paranoia, Insomnia",Diazepam,,51.7327125,-3.48293125
W067572,07 Aug 2025,HX39,10mg Nitrazepam,10mg Nitrazepam,White,Tablet,Not Stated,Not Stated,Nitrazepam,,53.72608333333333,-1.8416
W067619,07 Aug 2025,SW22,Diazepam 5mg tablet,Diazepam 5mg tablet teva,Yellow,Tablet,Not Stated,Not Stated,Diazepam,,51.4548,-0.1158
000235467,07 Aug 2025,NP24,Daizepam,Diazepam,,Tablet,Oral,Relaxed,Bromazolam,,51.7205,-3.2413
W067592,07 Aug 2025,EH54,Diazepam,Elikem Elipum 10,White,Tablet,Oral,Not Stated,Diazepam,,55.9029,-3.5226
W067642,07 Aug 2025,BN32,valium,Diazepam valium,Blue,Tablet,Oral,Not Stated,Diazepam,,50.836725,-0.179625
W067611,07 Aug 2025,EH54,Diazepam 10mg,Diazepam 10mg,Blue,Tablet,Oral,"Increased Confidence, Empathy, Relaxed, Anxiety",Ethylbromazolam,,55.9029,-3.5226
W067606,05 Aug 2025,EH54,Clonazepam 2mg,Cloazepam 2mg,White,Tablet,Oral,"Increased Confidence, Empathy, Relaxed",Clonazepam,,55.9029,-3.5226
W067584,07 Aug 2025,WV6,Diazepam 10mg,Diazepam accord,Blue,Tablet,Not Stated,Not Stated,Diazepam,,52.59424545454545,-2.2206454545454544
W067569,07 Aug 2025,S427,Diazepam,Diazepam 10mg,White,Tablet,Not Stated,Not Stated,Diazepam,,53.21066,-1.4471733333333332
W067557,07 Aug 2025,TA2,Ksaol Alprazolam,Ksalol Alprazolam,"White, Blue",Tablet,Oral,Relaxed,Alprazolam,,51.04662,-3.08832
W067583,07 Aug 2025,WV6,Diazepam 10mg,Diazepam 10mg Accord,Blue,Tablet,Not Stated,Not Stated,Diazepam,,52.59424545454545,-2.2206454545454544
W067600,07 Aug 2025,NE16,Xanax Alprazolam,Not Stated,Yellow,Tablet,Not Stated,Not Stated,"Etizolam, Alprazolam",,54.930483333333335,-1.69105
W067580,07 Aug 2025,RM13,Diazepam,Accord Diazepam,Yellow,Tablet,Not Stated,Not Stated,Diazepam,,51.5223,0.1936999999999999
W067579,07 Aug 2025,RM13,Clonazepam,galenika Rivotril Klonazepam,White,Tablet,Not Stated,Not Stated,Ethylbromazolam,,51.5223,0.1936999999999999
000233071,05 Aug 2025,PH1,valium,Accord valium,Blue,Tablet,Oral,"Empathy, Relaxed",Diazepam,,56.43174736842105,-3.4980552631578945
W067388,05 Aug 2025,TR13,10mg Diazepam,Diazepam 10mg,White,Tablet,Oral,"Increased Energy, Increased Confidence, Increased Stamina, Relaxed",Diazepam,,50.11412307692308,-5.283953846153846
W067521,05 Aug 2025,PL22,Diazepam,Diazepam,Blue,Tablet,Not Stated,"Relaxed, Depression",Ethylbromazolam,,50.39221111111111,-4.640277777777778
W067574,05 Aug 2025,BS3,Etizolam,Not Stated,Pink,Tablet,Not Stated,Not Stated,Clobromazolam,,51.4552,-2.5966
W067546,05 Aug 2025,SR20,Diazepam,bensedin galenika Diazepam,White,Tablet,Not Stated,Not Stated,Bromazolam,,54.8792,-1.37365
W067439,05 Aug 2025,EC1,Xanax,Xanax 2,White,Tablet,Oral,Memory Loss,Caffeine,Clobromazolam,51.52320909090909,-0.1055181818181818
W067484,05 Aug 2025,NW1,Diazepam,Diazepam,Blue,Tablet,Oral,Relaxed,Diazepam,,51.52988181818182,-0.1471818181818182
W067525,05 Aug 2025,E2,Valium,Diazepam,,,Not Stated,Not Stated,Diazepam,,51.5386,-0.055525
W067216,05 Aug 2025,KT4,Diazepam,Galenika Bensedin 10mg,White,Tablet,Not Stated,Not Stated,Bromazolam,,51.38995,-0.2472
W067530,05 Aug 2025,NE35,Valium,Bensedin 10mg,White,Tablet,Not Stated,Not Stated,Diazepam,,54.9503,-1.469
W067531,05 Aug 2025,NE35,Ketamine,Not Stated,White,Powder,Not Stated,Not Stated,Diazepam,,54.9503,-1.469
W067425,05 Aug 2025,CF62,Diazepam,Diazepam,Pink,Tablet,Oral,Relaxed,Diazepam,,51.4027,-3.37145
W067536,05 Aug 2025,LS2,Alprazolam 1mg,Galenika Alprazolam 1mg,Blue,Tablet,Not Stated,Not Stated,Bromazolam,Rilmazafone,53.7965,-1.5478
W067487,05 Aug 2025,BT61,Diazepam,Diazepam,Blue,Tablet,Not Stated,Not Stated,"MDMA, Ethylbromazolam",,54.3889,-6.605583333333333
W067506,05 Aug 2025,NR33,Daizepam,Diazepam Accord,Blue,Tablet,Not Stated,Not Stated,Ethylbromazolam,,52.439275,1.7061875
000232541,05 Aug 2025,G4,Valium,Not Stated,White,Tablet,Not Stated,"Relaxed, Nausea, Confusion",Clonazolam,,55.8651,-4.2576
W067518,05 Aug 2025,TN16,Diazepam,Accord,Yellow,Tablet,Not Stated,Not Stated,Diazepam,,51.2871,0.0597833333333333
W067450,05 Aug 2025,AB16,Nitrazepam,Nitrabit 10,White,,Oral,"Relaxed, Loss of consciousness",Nitrazepam,,57.16,-2.1567
W067306,05 Aug 2025,WC1,Diazepam 10mg,Diazepam terapia comprimate,White,Tablet,Oral,No Effect,No Active Component Identified,,51.525485714285715,-0.1222999999999999
W067535,05 Aug 2025,TN34,Valium,Valium,Blue,Tablet,Oral,Relaxed,Diazepam,,50.8552,0.5729
W067463,05 Aug 2025,NE84,Blues,Not Stated,White,Tablet,Not Stated,Not Stated,Diazepam,,54.9621,-1.6017
W067366,05 Aug 2025,BS5,Alprazolam,Alrax Xr 2mg,,Tablet,Not Stated,Not Stated,No Active Component Identified,,51.462,-2.5519
W067473,05 Aug 2025,AB12,Diazepam,Bensedin Galenika 10mg,White,Tablet,Oral,"No Effect, Relaxed",Bromazolam,,57.1437,-2.0981
W067480,05 Aug 2025,CF23,Alprazolam,Alprazolam,White,Powder,Oral,"Relaxed, Confusion",xylazine,,51.5144,-3.1545
W067031,05 Aug 2025,NP19,Diazepam,Not Stated,White,Tablet,Oral,"Euphoria, Relaxed",Diazepam,,51.5888,-2.9638
W067426,05 Aug 2025,CH42,Xanax Alprazolam,Not Stated,White,Tablet,Oral,"Enhanced Senses, Relaxed, Memory Loss, Agitation",Alprazolam,,53.378899999999994,-3.0139666666666667
000233075,05 Aug 2025,KA1,Valium,Diazepam,Blue,Tablet,Oral,Relaxed,Diazepam,,55.56470000000001,-4.504609090909091
W067483,05 Aug 2025,NW1,Diazepam,Diazepam,Blue,Tablet,Oral,Relaxed,Diazepam,,51.52988181818182,-0.1471818181818182
W067404,01 Aug 2025,M287,Valium Diazepam,Valium Diazepam 10mg Tablet,Blue,Tablet,Oral,"Relaxed, Panic Attack",Diazepam,,53.50606666666667,-2.3990666666666667
W067333,01 Aug 2025,RG12,Alprazolam 2mg,Alpraxo x r2 odsmin,White,Tablet,Oral,"Increased Confidence, Relaxed, Memory Loss, Panic Attack",Alprazolam,,51.4007,-0.7635
W067421,01 Aug 2025,RM13,Diazepam,Galenika Bensedin Diazepam,White,Tablet,Not Stated,Not Stated,Ethylbromazolam,Bromazolam,51.5223,0.1936999999999999
W067432,01 Aug 2025,SA43,Rivotril Clonazepam,Rivotril Clonazepam,White,Tablet,Oral,"Euphoria, Increased Confidence, Relaxed, Irregular Heartbeat, Paranoia",Clonazepam,,52.07603076923077,-4.6376
W067446,01 Aug 2025,G83,Diazepam,Diazepam teva 5mg,Yellow,Tablet,Not Stated,Not Stated,No Active Component Identified,,56.03989166666666,-4.6006583333333335
W067454,01 Aug 2025,G320,Diazepam,Valium/diazepam Martin dow,Blue,Tablet,Oral,"Relaxed, Depression, Headache","Paracetamol, Bromazolam",,55.85,-4.1833
W067414,01 Aug 2025,CF14,Lorazepam,Elikem Lor-2 Lorazepam,White,Tablet,Not Stated,Not Stated,Lorazepam,,51.5199,-3.204
000235858,01 Aug 2025,CF10,Unknown,Not Stated,Blue,Tablet,Not Stated,Not Stated,Ethylbromazolam,,51.48,-3.18
W067194,01 Aug 2025,CA7,Tramadol/diazepam,Tramadol,"Green, Yellow",Capsule,Not Stated,"Increased Energy, Increased Confidence, Enhanced Senses, Increased Strength, Relaxed, Chest Pains, Irregular Heartbeat, Panic Attack, Insomnia, Depression, Suicidal Ideation",Tramadol,,54.80357826086957,-3.161617391304348
W067364,01 Aug 2025,CV9,Valium diazepam,Martin dow 10mg valium diazepam,Blue,Tablet,Oral,"Euphoria, Increased Energy, Relaxed",Diazepam,,52.593988888888894,-1.561288888888889
W067409,01 Aug 2025,HP22,Clonazepam,Galenika 2mg,White,Tablet,Oral,Relaxed,"Clonazepam, Diazepam",,51.83288095238095,-0.786652380952381
W067083,01 Aug 2025,SA3,Benzodiazepine,Clonazepam,White,Tablet,Oral,"Relaxed, Memory Loss",Clonazepam,,51.59142222222222,-4.136385185185185
W067378,01 Aug 2025,CT7,Diazepam 10mg,Accrod Diazepam,Blue,Tablet,Oral,Not Stated,Bromazolam,,51.355725,1.276925
W067413,01 Aug 2025,SE1,Xanax,Not Stated,Blue,Tablet,Not Stated,Not Stated,Alprazolam,,51.49874615384616,-0.0930384615384615
W067423,01 Aug 2025,TN16,Diazepam,Diazepam,Yellow,Tablet,Not Stated,Not Stated,Diazepam,,51.2871,0.0597833333333333
W067355,30 Jul 2025,M19,Clonazepam,Rivotril,White,Tablet,Not Stated,Not Stated,Ethylbromazolam,,53.4327,-2.1997
W067218,30 Jul 2025,NG13,Xanax (alprazolam),Alprazolam 2mg,White,Tablet,Oral,"Euphoria, Empathy, Relaxed, Memory Loss, Loss of consciousness",Ethylbromazolam,,52.952565517241375,-0.8941689655172415
W067223,30 Jul 2025,NN3,Clonazepam,Clonazepam rivotril 2mg,White,Tablet,Oral,No Effect,Clonazepam,,52.27582,-0.83308
W067217,29 Jul 2025,NG13,Etizolam,Etizolam 2mg,Red,Tablet,Oral,"Euphoria, Relaxed, Memory Loss, Confusion, Loss of consciousness",Clobromazolam,,52.952565517241375,-0.8941689655172415
W067178,29 Jul 2025,CA14,Diazepam 5mg,Not Stated,Yellow,Tablet,Oral,"Euphoria, Increased Confidence, Increased Energy, Relaxed",Bromazolam,,54.630025,-3.50065
W067179,29 Jul 2025,CA14,Diazepam 10mg,Not Stated,Blue,Tablet,Oral,"Euphoria, Increased Confidence, Increased Energy, Relaxed",Ethylbromazolam,,54.630025,-3.50065
W067313,29 Jul 2025,NN3,Rivotril 2mg (clonazepam),Rivotril 2mg,White,Tablet,Not Stated,No Effect,Clonazepam,,52.27582,-0.83308
W067343,29 Jul 2025,TN34,Diazepam,Diazepam,White,Tablet,Oral,Relaxed,Diazepam,,50.8552,0.5729
W067105,29 Jul 2025,KT6,Diazepam,Martin dow (m),Blue,Tablet,Not Stated,Not Stated,Diazepam,,51.38595,-0.2898
W067103,29 Jul 2025,KT6,Diazepam,martin dow (d),Blue,Tablet,Not Stated,Not Stated,Diazepam,,51.38595,-0.2898
W067101,29 Jul 2025,KT6,Diazepam,martin dow (w),Blue,Tablet,Not Stated,Not Stated,Diazepam,,51.38595,-0.2898
W067104,29 Jul 2025,KT6,Diazepam,Bensedin Galenika 10mg,"White, Blue",Tablet,Not Stated,Not Stated,Diazepam,,51.38595,-0.2898
W067102,29 Jul 2025,KT6,Diazepam,Accord Diazepam 10mg,Blue,Tablet,Not Stated,Not Stated,Diazepam,,51.38595,-0.2898
W067100,29 Jul 2025,KT6,Eitozolam,Etikem -1,White,Tablet,Not Stated,Not Stated,Etizolam,,51.38595,-0.2898
W067198,29 Jul 2025,SW25,Xanax,Not Stated,White,Tablet,Not Stated,Not Stated,Alprazolam,,51.4548,-0.1158
W067309,29 Jul 2025,NG72,Diazepam,Sedil 5mg,Yellow,Tablet,Not Stated,Not Stated,Diazepam,,52.9536,-1.1505
000233492,29 Jul 2025,LL55,Diazepam 10mg,Valium (diazepam),White,Tablet,Oral,"Relaxed, Breathlesness, Chest Pains, Irregular Heartbeat, Nausea, Memory Loss, Confusion, Loss of consciousness, Depression, Suicidal Ideation",No Active Component Identified,,53.12915357142857,-4.195053571428572
W067262,29 Jul 2025,OX13,Diazepam,Elipam 10,White,Tablet,Not Stated,Not Stated,Diazepam,,51.673544444444445,-1.3561166666666666
W067180,29 Jul 2025,BN6,Diazepam,Valium 10mg Martin dow,Blue,Tablet,Not Stated,Not Stated,"Paracetamol, Diazepam, Bromazolam",,50.92262,-0.14494
W067214,29 Jul 2025,ML14,Clonazepam,Rivotril,White,Tablet,Not Stated,Not Stated,Ethylbromazolam,,55.80563333333333,-3.95475
W067199,29 Jul 2025,NE13,Diazepam,Diazepam,Blue,Tablet,Oral,"Euphoria, Increased Confidence, Relaxed",Diazepam,,55.0523,-1.6473666666666666
W067422,29 Jul 2025,CF64,Clonazepam,Rivotril 2mg Klonazepam,White,Tablet,Oral,Relaxed,Bromazolam,,51.42878,-3.21045
W067126,29 Jul 2025,BL90,Clonazepam,Clonazepam,White,Tablet,Oral,Agitation,Clonazepam,,53.60243333333333,-2.298083333333333
W067201,29 Jul 2025,RG14,Xanax,Xanax,White,Tablet,Oral,Not Stated,Ethylbromazolam,,51.407383333333335,-1.3243833333333337
W067196,29 Jul 2025,NE13,Clonazepam,Clonazepam,White,Tablet,Oral,"Euphoria, Increased Energy, Relaxed","Clonazepam, Alprazolam",,55.0523,-1.6473666666666666
000236708,29 Jul 2025,SA1,benzodiazepam,MST,Blue,,Not Stated,Not Stated,Ethylbromazolam,,51.633979999999994,-3.94848
000236707,29 Jul 2025,SA1,valium,Not Stated,Blue,Tablet,Not Stated,Not Stated,Ethylbromazolam,,51.633979999999994,-3.94848
W067066,29 Jul 2025,NR1,Diazepam,Diazepam 10mg,Blue,Tablet,Oral,Relaxed,Ethylbromazolam,,52.6271,1.3072
W067202,29 Jul 2025,RG14,Clonazepam,Clonazepam,White,Tablet,Not Stated,Not Stated,Clonazepam,,51.407383333333335,-1.3243833333333337
W067185,29 Jul 2025,TW11,Zolpidem,Clonzepam,White,Tablet,Oral,Relaxed,Clonazepam,,51.4223,-0.3305
000231056,25 Jul 2025,CF83,MSJ Valium,Not Stated,Blue,Tablet,Oral,"Relaxed, Agitation",Ethylbromazolam,,51.59288333333333,-3.2333833333333337
W067136,25 Jul 2025,SR3,Clonazepam,Galenika Rivotril,White,Tablet,Not Stated,Not Stated,Clonazepam,,54.874233333333336,-1.4153666666666669
000232900,25 Jul 2025,NP20,Valium,Not Stated,"White, Blue",Tablet,Not Stated,Not Stated,Ethylbromazolam,,51.5877,-2.9984
000230495,25 Jul 2025,NP20,Valium,Not Stated,White,Tablet,Not Stated,Not Stated,Ethylbromazolam,,51.5877,-2.9984
W067143,25 Jul 2025,NW1,Clonazepam,Neuraxcpharm,White,Tablet,Oral,"Enhanced Senses, Relaxed, Breathlesness, Memory Loss",Clonazepam,,51.52988181818182,-0.1471818181818182
W067142,25 Jul 2025,NW1,Diazepam,Accord,Blue,Tablet,Oral,Relaxed,Diazepam,,51.52988181818182,-0.1471818181818182
W067114,25 Jul 2025,LL29,Diazepam,Valium Diazepam,Blue,Tablet,Oral,"Relaxed, Irregular Heartbeat, Nausea, Paranoia, Confusion, Loss of consciousness","Paracetamol, Bromazolam",,53.283275,-3.6966
W067130,25 Jul 2025,GU11,Alprazolam,Galenika Alprazolam,Blue,Tablet,Not Stated,Not Stated,Ethylbromazolam,,51.2484,-0.763
W067131,25 Jul 2025,GU15,Diazepam,Martin Dow,Blue,Tablet,Oral,"Euphoria, Increased Confidence, Empathy, Relaxed",Diazepam,,51.337,-0.7426
W067086,25 Jul 2025,HP4,Diazepam,Not Stated,Blue,Tablet,Not Stated,Not Stated,Alprazolam,,51.774116666666664,-0.56985
W067095,25 Jul 2025,SW2,Diazepam Galenika,Not Stated,White,Tablet,Not Stated,Not Stated,Diazepam,,51.4548,-0.1158
W067093,25 Jul 2025,SW2,Clonazepam,Neuraxpharm,White,Tablet,Not Stated,Not Stated,Clonazepam,,51.4548,-0.1158
W067092,25 Jul 2025,SW2,Diazepam Accord,Diazepam,Blue,Tablet,Oral,Not Stated,Diazepam,,51.4548,-0.1158
W067094,25 Jul 2025,SW2,Clonazepam Galenika ,Clonazepam,White,Tablet,Not Stated,Not Stated,Clonazepam,,51.4548,-0.1158
W067135,25 Jul 2025,SR3,Diazepam,Galeniak bensedin,White,Tablet,Not Stated,Not Stated,No Active Component Identified,,54.874233333333336,-1.4153666666666669
000236879,25 Jul 2025,CF63,Diazepam,Not Stated,Blue,Tablet,Not Stated,Tiredness,Ethylbromazolam,,51.4172,-3.2614
W067067,25 Jul 2025,SK12,Martin Dow Diazepam,Not Stated,White,Tablet,Oral,"Euphoria, Increased Confidence, Relaxed",Diazepam,,53.351884210526315,-2.0920947368421055
W067078,25 Jul 2025,EH7,Diazepam,Diazepam Martin Dow,Blue,Tablet,Not Stated,Not Stated,Diazepam,,55.9521,-3.1965
W067121,25 Jul 2025,FK8,Valium,Not Stated,Blue,Tablet,Oral,No Effect,Diazepam,,56.12892702702703,-4.228913513513514
W067088,25 Jul 2025,RH5,Alprazolam,Rlam,White,Tablet,Oral,No Effect,Tramadol,,51.190875,-0.345135
W066984,24 Jul 2025,DG2,Alprazolam,Not Stated,Blue,Tablet,Not Stated,Not Stated,Alprazolam,,55.0759,-3.6539760869565217
W067079,24 Jul 2025,NR15,Diazepam,Bensedin,White,Tablet,Not Stated,Not Stated,Ethylbromazolam,,52.501371428571424,1.2747428571428572
W067061,24 Jul 2025,HU6,Alprazolam,Not Stated,White,Tablet,Not Stated,Not Stated,Alprazolam,,53.8011,-0.3714
W067110,24 Jul 2025,CH6,Bromazolam,Not Stated,White,Tablet,Oral,"Euphoria, Relaxed, Paranoia, Confusion, Dizziness",Alprazolam,,53.255125,-3.1489
W067057,24 Jul 2025,CM3,Valium,Valium Martin Dow Limited,Blue,Tablet,Not Stated,Not Stated,Diazepam,,51.720659999999995,0.5871850000000001
W066951,24 Jul 2025,CH5,Clonazepam,Not Stated,White,Tablet,Not Stated,Not Stated,Clonazepam,,53.19930000000001,-3.03614
W066953,24 Jul 2025,CH5,Xanax,Xanax,White,,Not Stated,Not Stated,Ethylbromazolam,,53.19930000000001,-3.03614
W066950,24 Jul 2025,CH5,Diazepam,Accord,Blue,Tablet,Oral,Relaxed,Ethylbromazolam,,53.19930000000001,-3.03614
W066170,24 Jul 2025,LL53,Xanax,Farmapram Xanax,White,Tablet,Oral,No Effect,Alprazolam,,52.89524166666667,-4.493856666666668
W067052,24 Jul 2025,SW22,Diazepam,Diazepam Almus,Yellow,Tablet,Not Stated,Not Stated,Diazepam,,51.4548,-0.1158
W067055,24 Jul 2025,SR3,Lorazepam,Lorus,White,Tablet,Not Stated,Not Stated,Lorazepam,,54.874233333333336,-1.4153666666666669
W066906,24 Jul 2025,LE4,Xanax Alprazolam,Rlam,White,Tablet,Not Stated,Not Stated,Tramadol,,52.664566666666666,-1.1087333333333331
W067016,24 Jul 2025,BT1,Diazepam,Not Stated,Yellow,Tablet,Not Stated,Not Stated,Diazepam,,54.5833,-5.9333
W067007,24 Jul 2025,ZE10,benzos,Nitrazepam,White,Tablet,Oral,"Euphoria, Increased Confidence, Empathy, Relaxed, Memory Loss, Loss of consciousness",Diazepam,,60.14640000000001,-1.2131857142857143
W066942,24 Jul 2025,ML1,Alprazolam Xanax,Not Stated,White,Tablet,Not Stated,Not Stated,Tramadol,,55.80563333333333,-3.95475
W066228,24 Jul 2025,NE29,Diazepam,Valium Roche,Blue,Tablet,Not Stated,Not Stated,Diazepam,,55.0165,-1.4493
W067006,24 Jul 2025,SK13,Clonazepam,Clonazepam Alissa,White,Tablet,Not Stated,Not Stated,Clonazepam,,53.4433,-1.949
W067003,24 Jul 2025,SK13,Clonazepam,Clonazepam Novumgen,White,Tablet,Not Stated,Not Stated,Clonazepam,,53.4433,-1.949
W066229,24 Jul 2025,NE29,Alprax Alprazolam,Alpraz Alprazolam Opsenin,White,Tablet,Not Stated,Not Stated,Alprazolam,,55.0165,-1.4493
W067062,24 Jul 2025,SY21,Xanax,Green Hulk,Green,Tablet,Oral,"Empathy, Relaxed, Memory Loss, Confusion, Loss of consciousness",Bromazolam,,52.670813513513515,-3.1976945945945947
W067019,24 Jul 2025,B33,Diazepam,JHL Diazepam,Yellow,Tablet,Oral,"Euphoria, Relaxed",Diazepam,,52.4804,-1.7883
W066425,24 Jul 2025,KA11,Valium,Not Stated,White,Tablet,Not Stated,No Effect,Etizolam,,55.613125,-4.617725
W066169,24 Jul 2025,LL53,xanax,Rlam Xanax,White,Tablet,Oral,No Effect,Alprazolam,,52.89524166666667,-4.493856666666668
W067018,24 Jul 2025,B26,Diazepam,Juhel Juloium JHL,Yellow,Tablet,Not Stated,Not Stated,Diazepam,,52.45953333333333,-1.7873333333333334
W067089,24 Jul 2025,B26,JHL Diazepam,Not Stated,Yellow,Tablet,Not Stated,Not Stated,Diazepam,,52.45953333333333,-1.7873333333333334
W066996,24 Jul 2025,S21,Diazepam,Not Stated,White,Tablet,Oral,No Effect,Diazepam,,53.3123,-1.3394
W066845,24 Jul 2025,WC1N,Diazepam,MSJ,White,Tablet,Not Stated,No Effect,Bromazolam,,51.5085,-0.1257
W066994,24 Jul 2025,SR3,Diaezpam,Accord Diazepam,White,Tablet,Not Stated,Not Stated,Diazepam,,54.874233333333336,-1.4153666666666669
W066962,24 Jul 2025,WN5,Diazepam,Not Stated,Blue,Tablet,Not Stated,"Increased Confidence, Relaxed",Diazepam,,53.497899999999994,-2.7081
W066989,24 Jul 2025,BN29,Alprazolam,Tehran Darou,Blue,Tablet,Not Stated,Not Stated,Alprazolam,,50.823825,-0.082825
W066844,24 Jul 2025,WC1N,Xanax/Alprazolam,Xanax,White,Tablet,Oral,"Increased Confidence, Relaxed",Ethylbromazolam,,51.5085,-0.1257
W066895,24 Jul 2025,EH10,alprazolam,Ksalol,White,Tablet,Not Stated,Not Stated,Bromazolam,,55.91466666666667,-3.2046333333333337
W066760,24 Jul 2025,MK45,Diazepam,Not Stated,Blue,Tablet,Not Stated,Not Stated,Ethylbromazolam,,52.02854090909091,-0.4638772727272727
W066935,24 Jul 2025,CV2,Valium,martin Dow,Blue,Tablet,Not Stated,Not Stated,Diazepam,,52.424525,-1.459175
W066963,24 Jul 2025,WN5,Diazepam,Not Stated,Blue,Tablet,Oral,"Increased Confidence, Empathy, Relaxed",Diazepam,,53.497899999999994,-2.7081
W066970,21 Jul 2025,CV12,Diazepam (Valium)(,Valium,Blue,Tablet,Not Stated,Not Stated,Diazepam,,52.478075,-1.4476
W066918,21 Jul 2025,KY5,Diazepam,MSM,Blue,Tablet,Oral,No Effect,No Active Component Identified,,56.1493125,-3.285875
W066227,21 Jul 2025,NE29,Diazepam elkim Dizpam,Dizopam Elkim elipam Diazepam,White,Tablet,Not Stated,Not Stated,Diazepam,,55.0165,-1.4493
W066937,21 Jul 2025,CV2,Nitrazepam,Accord,White,Tablet,Not Stated,Not Stated,Nitrazepam,,52.424525,-1.459175
W066938,21 Jul 2025,CV7,Diazepam,Accord,Blue,Tablet,Not Stated,Not Stated,Diazepam,,52.44593888888889,-1.5487333333333335
000234317,21 Jul 2025,CF11,Clonazepam,Not Stated,White,Tablet,Not Stated,Not Stated,Clonazepam,,51.48,-3.18
000234318,21 Jul 2025,CF11,Clonazepam,Not Stated,White,Tablet,Oral,Not Stated,Clonazepam,,51.48,-3.18
W066949,21 Jul 2025,BB4,Diazepam,Not Stated,Blue,Tablet,Oral,Relaxed,Ethylbromazolam,,53.69772,-2.2986
W066990,21 Jul 2025,BN29,Diazepam,"Sochan Darou Diazepam,",Blue,Tablet,Not Stated,Not Stated,Diazepam,,50.823825,-0.082825
W066943,21 Jul 2025,NE3,Diazepam,Martin Dow Diazepam,Blue,Tablet,Oral,Relaxed,Diazepam,,55.003175,-1.6339
W066744,21 Jul 2025,PL27,Bensiden Galenika Diazepam 10mg,Bensiden Gelanika Diazepam 10mg,White,Tablet,Not Stated,Not Stated,Bromazolam,,50.52926363636364,-4.906113636363636
W066939,21 Jul 2025,OX13,Valium/Miazepam,Diazepam,White,Tablet,Not Stated,Not Stated,Ethylbromazolam,,51.673544444444445,-1.3561166666666666
W066916,21 Jul 2025,WA7,Diazepam,Dow jones,White,Tablet,Oral,"Empathy, Relaxed",Diazepam,,53.324125,-2.7118
W066911,21 Jul 2025,CF10,Benzodiazapine/valium,Not Stated,Blue,Tablet,Not Stated,Not Stated,Ethylbromazolam,,51.48,-3.18
W066913,21 Jul 2025,CF10,Benzodiazepine/valium,Not Stated,Blue,Tablet,Oral,"Relaxed, Memory Loss, Panic Attack, Loss of consciousness",Ethylbromazolam,,51.48,-3.18
000234942,21 Jul 2025,CF32,Xanax,Not Stated,White,Tablet,Oral,"Breathlesness, Vomiting, Confusion, Loss of consciousness",Ethylbromazolam,,51.536704166666674,-3.5931333333333337
W066954,21 Jul 2025,G12,Valium,Galenika Bensedin,White,Tablet,Oral,Relaxed,Ethylbromazolam,,55.8804,-4.3007
W066956,21 Jul 2025,G12,Valium,"Diazepam, valium martin dow",Blue,Tablet,Oral,Relaxed,Diazepam,,55.8804,-4.3007
000236115,21 Jul 2025,CF62,Clonazepam 2mg,Not Stated,White,Tablet,Oral,Relaxed,Clonazepam,,51.4027,-3.37145
W067015,21 Jul 2025,BN6,Xanax,Amg Alprazolam (G-gelenika),"White, Blue",Tablet,Oral,No Effect,Alprazolam,,50.92262,-0.14494
W066748,21 Jul 2025,SE9,Diazepam 2mg,Diazeoam 2mg,White,,Not Stated,Not Stated,Diazepam,,51.44698000000001,0.0542799999999999
W066545,21 Jul 2025,L13,Heroin,RW Afghan dream cream ,"Brown, Brown",Powder,Not Stated,Not Stated,"Heroin, Noscapine, 6-MAM, 6-Acetylcodeine, MDMA","Diazepam, Caffeine, Papaverine",53.4179,-2.9206
W066739,17 Jul 2025,GU15,Etizolam,Etizolam Neurozol,White,Tablet,Not Stated,Not Stated,Etizolam,,51.337,-0.7426
W066807,17 Jul 2025,SK2,Diaepam,Elikem Elipam Diazepam,White,Tablet,Oral,No Effect,Diazepam,,53.3946,-2.1329
W066836,17 Jul 2025,WV39,Diazepam,Not Stated,White,Tablet,Oral,"Increased Confidence, Increased Stamina, Relaxed, Irregular Heartbeat, Memory Loss",Etizolam,,52.5791,-2.1561
W066802,17 Jul 2025,EH3,Alprazolam,Not Stated,White,Tablet,Not Stated,Not Stated,Alprazolam,,55.9521,-3.1965
W066817,17 Jul 2025,GU13,Diazepam,Martin Dow,Blue,Tablet,Oral,"Euphoria, Relaxed, Paranoia",Diazepam,,51.2833,-0.8333
W066706,17 Jul 2025,EX28,Clonazepam,Not Stated,White,Tablet,Not Stated,Not Stated,Clonazepam,,50.70541666666667,-3.529533333333333
W066705,17 Jul 2025,EX28,Rlam Alprazolam,Not Stated,White,Tablet,Not Stated,Not Stated,Alprazolam,,50.70541666666667,-3.529533333333333
W066818,17 Jul 2025,GU13,Lorazepam,Lor2,White,Tablet,Not Stated,Not Stated,Lorazepam,,51.2833,-0.8333
W066848,17 Jul 2025,HR6,Chlordiazepoxide,Letap,"Green, Black",Capsule,Oral,"Increased Confidence, Relaxed, Irregular Heartbeat",Chlordiazepoxide,,52.215596363636365,-2.6785654545454545
W066787,17 Jul 2025,CM16,3-MMC,Not Stated,White,Solid,Not Stated,Not Stated,Clonazepam,,51.70625555555556,0.1061333333333333
W066819,17 Jul 2025,EU15,Alprazolam,Alprx,White,Tablet,Not Stated,Not Stated,Alprazolam,,,
W066890,17 Jul 2025,LE85,Valium (Diazepam),Martin Dow Diazepam,Blue,Tablet,Not Stated,Not Stated,Diazepam,,52.54881176470588,-1.0493705882352942
W066814,17 Jul 2025,SA1,Diazepam,Not Stated,"White, Yellow",Tablet,Oral,"Increased Confidence, Relaxed, Agitation",Diazepam,,51.633979999999994,-3.94848
W066801,17 Jul 2025,MK42,Clonazepam,Rivotril Galenika,White,Tablet,Not Stated,Not Stated,Clonazepam,,52.1141,-0.4797666666666666
W066843,17 Jul 2025,G52,Diazepam,Martin Dow,"White, Blue",Tablet,Not Stated,Not Stated,Diazepam,,55.8479,-4.3503
000043227,17 Jul 2025,CF11,Diazepam,Not Stated,Blue,Tablet,Oral,"Euphoria, Relaxed",Ethylbromazolam,,51.48,-3.18
W066785,17 Jul 2025,YO23,Diazepam,Not Stated,Blue,Tablet,Oral,"Relaxed, Memory Loss, Confusion, Agitation, Depression",Ethylbromazolam,,53.914883333333336,-1.1672333333333331
W066786,17 Jul 2025,YO23,Diazepam,Diazepam tablets,Blue,Tablet,Oral,"Relaxed, Memory Loss, Confusion, Agitation, Depression",Ethylbromazolam,,53.914883333333336,-1.1672333333333331
W066717,17 Jul 2025,M18,Klonazepam,Not Stated,Blue,Tablet,Oral,No Effect,Clobromazolam,,53.4667,-2.1667
000231059,17 Jul 2025,CF83,Valium,MSJ,Blue,Tablet,Oral,Relaxed,Ethylbromazolam,,51.59288333333333,-3.2333833333333337
W066790,17 Jul 2025,SA4,Diazepam,Not Stated,,Tablet,Not Stated,Not Stated,Diazepam,,51.670225,-4.059125
W065946,17 Jul 2025,KA31,Valium,Not Stated,White,Tablet,Oral,"Relaxed, Nausea, Vomiting, Paranoia, Memory Loss, Confusion, Loss of consciousness, Agitation, Depression",Clonazolam,,55.64550714285714,-4.502764285714286
W066806,17 Jul 2025,CV37,Diazepam hemofarm,Hemofarm diazepam,White,Tablet,Not Stated,Not Stated,Diazepam,,52.17773703703704,-1.6896925925925923
W066675,17 Jul 2025,WA6,Diazepam,Not Stated,White,Tablet,Oral,Relaxed,Diazepam,,53.26614166666667,-2.732791666666667
W066778,15 Jul 2025,BH15,Diazepam,Accord Diazepam,Blue,Tablet,Not Stated,Not Stated,"Ethylbromazolam, Bromazolam",,50.7167,-2.0
W066691,15 Jul 2025,LL29,Diazepam,Valium Diazepam,Blue,Tablet,Oral,"Euphoria, Relaxed",Diazepam,,53.283275,-3.6966
W066420,15 Jul 2025,KA11,Diazepam Accord,Accord Diazapan,Blue,Tablet,Not Stated,"Euphoria, Increased Energy, Increased Stamina, Relaxed",Bromazolam,,55.613125,-4.617725
W066746,15 Jul 2025,RG14,Etizolam,Not Stated,Red,Tablet,Not Stated,Not Stated,Diazepam,Caffeine,51.407383333333335,-1.3243833333333337
W066583,15 Jul 2025,TR14,Diazepam,Not Stated,Blue,Tablet,Not Stated,Not Stated,Diazepam,,50.19814,-5.30309
W066677,15 Jul 2025,CF45,Diazepam,Not Stated,Blue,Tablet,Oral,"Increased Energy, Increased Confidence, Increased Strength, Relaxed, Irregular Heartbeat",Diazepam,,51.66452,-3.3537
W066712,15 Jul 2025,CH2,Alprazolam,Rlam,White,Tablet,Oral,Relaxed,Tramadol,,53.25357,-2.85961
W066710,15 Jul 2025,CH2,Diazepam,Diazepam,Blue,Tablet,Oral,Relaxed,Ethylbromazolam,,53.25357,-2.85961
W066568,09 Jul 2025,B90,Alprazolam,Rlam-1,White,Tablet,Oral,"Increased Confidence, Relaxed, Memory Loss",Alprazolam,,52.4107,-1.8195
W066723,15 Jul 2025,LS2,Alprazolam,Aprazolam,Blue,Tablet,Oral,"Increased Confidence, Enhanced Senses, Relaxed",Bromazolam,,53.7965,-1.5478
W066692,15 Jul 2025,AB15,MSJ Diazepam,Diazepam,"White, Blue",Tablet,Oral,Not Stated,Ethylbromazolam,,57.1378,-2.1663
W066652,15 Jul 2025,WA7,Clonazepam,Klonazepama 40402,White,Tablet,Not Stated,Not Stated,Clonazepam,,53.324125,-2.7118
W066423,15 Jul 2025,KA11,Street valium ,Not Stated,White,Tablet,Oral,"Euphoria, Increased Energy, Increased Confidence, Relaxed, Memory Loss, Confusion",Etizolam,,55.613125,-4.617725
W066648,15 Jul 2025,CR8,Gelenika Ksalol Alprazolam (1mg),gelenika Ksalol Alprazolam (1mg),Blue,Tablet,Oral,"Increased Confidence, Relaxed, Loss of consciousness",Alprazolam,,51.331599999999995,-0.10655
W066421,15 Jul 2025,KA11,valium 10,Not Stated,White,Tablet,Not Stated,"Euphoria, Increased Energy, Increased Confidence, Increased Strength, Empathy, Relaxed",Clonazolam,,55.613125,-4.617725
W066665,15 Jul 2025,SK4,Diazepam,Matin Dows valium,Blue,Tablet,Not Stated,Not Stated,Diazepam,,53.4191,-2.1812
W066666,15 Jul 2025,SK4,Clonazepam,Neuraxpharm Uk LTD,White,Tablet,Not Stated,Not Stated,Clonazepam,,53.4191,-2.1812
W066667,15 Jul 2025,SK4,Clonazepam,Galenika Rivotril,White,Tablet,Not Stated,Not Stated,Bromazolam,,53.4191,-2.1812
W066697,15 Jul 2025,NW1,Nitrazepam,Nitrazepam PVL 5mg accord 5mg,White,Tablet,Not Stated,Not Stated,Nitrazepam,,51.52988181818182,-0.1471818181818182
W066696,15 Jul 2025,NW1,Diazepam,bensedin galenika 10mg,White,Tablet,Not Stated,Not Stated,Diazepam,,51.52988181818182,-0.1471818181818182
W066698,15 Jul 2025,NW1,Diazepam,Accord 5mg ,Yellow,Tablet,Not Stated,Not Stated,Diazepam,,51.52988181818182,-0.1471818181818182
W066387,15 Jul 2025,CM14,Diazepam,Diazepam,White,Tablet,Not Stated,Not Stated,Ethylbromazolam,,51.6213,0.3056
W066571,15 Jul 2025,B90,Clonazepam,Clonazepam (klozpas -2),White,Tablet,Oral,"Memory Loss, Confusion",Clonazepam,,52.4107,-1.8195
W066422,15 Jul 2025,KA11,Xanax Alprazolam,Aron Pharmaceuticals ,White,Tablet,Not Stated,No Effect,No Active Component Identified,,55.613125,-4.617725
000235408,15 Jul 2025,LD3,Not Stated,10mg Diazepam,White,Tablet,Oral,Relaxed,Diazepam,,51.99435362318841,-3.411075362318841
W066661,15 Jul 2025,NG31,Alprazolam,Ksalol galenika ,"Grey, Blue",Tablet,Not Stated,Not Stated,Alprazolam,,52.9255,-0.6468
W066557,15 Jul 2025,NE32,Diazepam,Diazepam,Yellow,Tablet,Oral,Not Stated,Diazepam,,54.974050000000005,-1.4842499999999998
W066556,15 Jul 2025,NE32,Diazepam,Diazepam,Yellow,Tablet,Oral,"Increased Confidence, Relaxed, Memory Loss",Diazepam,,54.974050000000005,-1.4842499999999998
W064233,09 Jul 2025,G82,Nitrazepam,Nitrazepam,White,Tablet,Oral,Relaxed,Phenazepam,,55.954800000000006,-4.5815222222222225
W066593,09 Jul 2025,ML8,Lorazepam,Not Stated,Yellow,Tablet,Not Stated,Not Stated,Lorazepam,,55.725675,-3.8645625
W066621,09 Jul 2025,TA6,Diazepam 5mg,Square Sedil Diazepam 5mg,Orange,Tablet,Oral,Relaxed,Diazepam,,51.139228571428575,-3.006471428571429
W066660,09 Jul 2025,E59N,Diazepam,valium,Blue,Tablet,Not Stated,Not Stated,Diazepam,,,
W065939,09 Jul 2025,SK12,Bensiden Diazepam,Bensiden Diazepam,White,Tablet,Oral,"Increased Confidence, Empathy",Bromazolam,,53.351884210526315,-2.0920947368421055
W066638,09 Jul 2025,NE3,Accord diazepam 10mg,Accord Diazepam 10mg,Blue,Tablet,Oral,Relaxed,Ethylbromazolam,,55.003175,-1.6339
W066513,09 Jul 2025,CH51,Diazepam,Bensedin,White,Tablet,Oral,Relaxed,Ethylbromazolam,,53.19930000000001,-3.03614
W066576,09 Jul 2025,PL27,Bensinden galenka diazepam 10mg,Besinden galenika diazepam 10mg,White,Tablet,Not Stated,Not Stated,Diazepam,,50.52926363636364,-4.906113636363636
W066628,09 Jul 2025,YO32,Alprazolam,Rlam-1,White,Tablet,Oral,"Pain Relief, Relaxed",Alprazolam,,54.0114375,-1.0430625
W066570,09 Jul 2025,B90,Alprazolam,Alprazolam (rlam-1),White,Tablet,Oral,"Relaxed, Chest Pains, Memory Loss",Tramadol,,52.4107,-1.8195
W066627,09 Jul 2025,YO32,Alprazolam,Rlam-1,White,Tablet,Not Stated,Not Stated,Alprazolam,,54.0114375,-1.0430625
W066592,09 Jul 2025,G13,Diazepam,Diazepam,Blue,Tablet,Oral,"Empathy, Relaxed, Memory Loss, Panic Attack",Diazepam,,55.8935,-4.348
W066580,09 Jul 2025,SO15,Alprazolam,Rlam-1 Alprazolam,White,Tablet,Not Stated,Not Stated,Alprazolam,,50.913799999999995,-1.419675
W065938,09 Jul 2025,SK12,Bensedin diazepam,bensiden diazepam,White,Tablet,Oral,"Increased Confidence, Empathy",Diazepam,,53.351884210526315,-2.0920947368421055
000234063,09 Jul 2025,NP20,valium,Not Stated,Blue,Tablet,Not Stated,Not Stated,Diazepam,,51.5877,-2.9984
W066599,09 Jul 2025,B32,bromazolam,bromazolam,Orange,,Not Stated,Not Stated,Pyrazolam,,52.4326,-1.99735
000231058,09 Jul 2025,CF83,Valium MSJ,MSJ Valium,Black,Tablet,Oral,"Relaxed, Agitation, Insomnia",Ethylbromazolam,,51.59288333333333,-3.2333833333333337
000234313,09 Jul 2025,CF11,Clonazedam Celix,Clonazepam celix,White,Tablet,Not Stated,"Euphoria, Increased Confidence, Relaxed, Memory Loss, Confusion",Clonazepam,,51.48,-3.18
000234312,09 Jul 2025,CF11,Clonazepam celix,Clonazepam celix,White,Tablet,Not Stated,"Euphoria, Increased Confidence, Relaxed",Clonazepam,,51.48,-3.18
W066596,09 Jul 2025,BN1,Alprazolam,Dahous Alprazolam,Blue,Tablet,Oral,Relaxed,Alprazolam,,50.8614,-0.1204166666666666
000234315,09 Jul 2025,CF11,Clonazepam,Clonazepam,White,Tablet,Oral,"Euphoria, Increased Confidence, Relaxed, Memory Loss, Confusion",Clonazepam,,51.48,-3.18
W066573,09 Jul 2025,SO19,Alprazolam 1mg (xanax),ksalol Galenika Alprazolam 1mg,Blue,Tablet,Oral,"No Effect, Relaxed",Alprazolam,,50.8993,-1.3670749999999998
000233972,09 Jul 2025,NP4,Diazepam,Galenika Bensedin 10mg,White,Tablet,Not Stated,Not Stated,Diazepam,,51.718515789473685,-3.030521052631579
000234288,09 Jul 2025,NP4,Diazepam,Diazepam,White,Tablet,Not Stated,Not Stated,Diazepam,,51.718515789473685,-3.030521052631579
000234283,09 Jul 2025,NP4,Diazepam,Galenika bensedin 10mg,White,Tablet,Not Stated,Not Stated,Diazepam,,51.718515789473685,-3.030521052631579
W066389,09 Jul 2025,BN3,Xanax/ Alprazolam,Alprazolam,White,Tablet,Oral,No Effect,"Clonazepam, Alprazolam",,50.836725,-0.179625
000234620,09 Jul 2025,CF10,MSJ,MSJ,"White, Pink",Tablet,Not Stated,Not Stated,Tadalafil,,51.48,-3.18
000233970,09 Jul 2025,NP4,Diazepam,Galenika Bensedin 10mg,White,Tablet,Not Stated,Not Stated,Diazepam,,51.718515789473685,-3.030521052631579
W066501,09 Jul 2025,DN58,Midazolam 7.5mg,Midolam,White,Tablet,Not Stated,Not Stated,Midazolam,,53.53578181818182,-1.229072727272727
000233975,09 Jul 2025,NP4,Diazepam,Diazepam,White,Tablet,Not Stated,Not Stated,Diazepam,,51.718515789473685,-3.030521052631579
000234285,09 Jul 2025,NP4,Diazepam,Galenika Bensedin ,White,Tablet,Not Stated,Not Stated,Diazepam,,51.718515789473685,-3.030521052631579
W066514,08 Jul 2025,LS18,Diazepam 10mg,Diazepam 10mg,Blue,Tablet,Not Stated,Not Stated,Diazepam,,53.838,-1.6404
W066510,08 Jul 2025,PL30,Diazepam,bensedin,White,Tablet,Not Stated,Not Stated,Ethylbromazolam,,50.509906666666666,-4.716783333333334
W066526,08 Jul 2025,SL1,Clonazepam,Clonazepam,White,Tablet,Oral,"Relaxed, Memory Loss",Clonazepam,,51.52121999999999,-0.63036
W066525,08 Jul 2025,SL1,Clonazepam,Clonazepam,White,Tablet,Not Stated,Not Stated,Clonazepam,,51.52121999999999,-0.63036
000234284,08 Jul 2025,NP4,Diazepam,galenika Bensedin 10mg,White,Tablet,Not Stated,Not Stated,Diazepam,,51.718515789473685,-3.030521052631579
000233974,08 Jul 2025,NP4,Diazepam,Galenika,White,Tablet,Not Stated,Not Stated,Diazepam,,51.718515789473685,-3.030521052631579
000233968,08 Jul 2025,NP4,Diazepam,Bensedin,White,Tablet,Not Stated,Not Stated,Diazepam,,51.718515789473685,-3.030521052631579
000233967,08 Jul 2025,NP4,Diazepam,Bensedin,White,Tablet,Not Stated,Not Stated,Diazepam,,51.718515789473685,-3.030521052631579
W066527,08 Jul 2025,SS9,Clonazepam,Rivotril,White,Tablet,Not Stated,Not Stated,"Paracetamol, Bromazolam",,51.54885,0.65005
000234287,08 Jul 2025,NP4,Diazepam,Galenika Bensedin,White,Tablet,Not Stated,Not Stated,Diazepam,,51.718515789473685,-3.030521052631579
W066360,08 Jul 2025,LS16,Diazepam,valium,Blue,Tablet,Not Stated,Not Stated,Diazepam,,53.868475,-1.5981
000234289,08 Jul 2025,NP4,Diazepam,Bensedin,White,Tablet,Not Stated,Not Stated,Diazepam,,51.718515789473685,-3.030521052631579
W066498,08 Jul 2025,DT9,Diazepam,Accord Valium,Blue,Tablet,Not Stated,Not Stated,"Paracetamol, Bromazolam",,50.93853428571428,-2.519611428571429
000233969,08 Jul 2025,NP4,Diazepam,Bensedin,White,Tablet,Not Stated,Not Stated,Diazepam,,51.718515789473685,-3.030521052631579
W066418,08 Jul 2025,LS8,Clonazepam,Klonazepam,White,Tablet,Oral,"Relaxed, Memory Loss",Clonazepam,,53.8245,-1.5099
W066543,08 Jul 2025,KT3,Diazepam,Bensedin,White,Tablet,Oral,Relaxed,Diazepam,,51.3992,-0.2556
W066549,08 Jul 2025,BD24,Lorazepam,Lorazepam,Blue,Tablet,Oral,"Panic Attack, Relaxed, Irregular Heartbeat, Anxiety",Lorazepam,,54.093607142857145,-2.2914857142857143
W066490,08 Jul 2025,FK7,Diazepam,Valium,Blue,Tablet,Not Stated,Not Stated,Diazepam,,56.0861125,-3.9108875
W066419,08 Jul 2025,LS8,Diazepam,Bensedin Galenika,White,Tablet,Oral,"Increased Confidence, Relaxed, Memory Loss",Diazepam,,53.8245,-1.5099
W066471,08 Jul 2025,SA73,Lorazepam,Nerodelm,Brown,Tablet,Oral,Relaxed,Lorazepam,,51.719835714285715,-4.983364285714286
W066475,08 Jul 2025,BN12,Clonazepam,Not Stated,White,Tablet,Not Stated,Not Stated,Clonazepam,,50.80785,-0.43005
W066493,08 Jul 2025,BR2,Valium,Not Stated,Blue,Tablet,Not Stated,Not Stated,Diazepam,,51.370025,0.02375
W066511,08 Jul 2025,WV14,Xanax,Not Stated,Colourless,Tablet,Oral,No Effect,Alprazolam,,52.556266666666666,-2.0771
W066476,08 Jul 2025,BN12,Alprazolam,Not Stated,White,Tablet,Not Stated,Not Stated,Alprazolam,,50.80785,-0.43005
W066409,08 Jul 2025,SN1,Diazepam,Not Stated,White,Tablet,Oral,Relaxed,Ethylbromazolam,,51.558,-1.7812
W066499,08 Jul 2025,BT43,Diazepam,Accord,"White, Blue",Tablet,Oral,"Enhanced Senses, Empathy, Relaxed, Confusion",Diazepam,,54.93786666666667,-6.2199
W066505,08 Jul 2025,CW9,Bensedin Valium,Bensedin,White,Tablet,Oral,Relaxed,Diazepam,,53.264406666666666,-2.5003200000000003
W066359,08 Jul 2025,LS16,Xanax,Not Stated,White,Tablet,Not Stated,Not Stated,Caffeine,Clobromazolam,53.868475,-1.5981
W066483,08 Jul 2025,G83,Diazepam,Accord,Blue,Tablet,Not Stated,Not Stated,Bromazolam,,56.03989166666666,-4.6006583333333335
000237995,08 Jul 2025,CF37,Diazepam,Not Stated,Blue,Tablet,Oral,No Effect,Diazepam,,51.613815384615386,-3.3598076923076925
W066485,08 Jul 2025,N16,Xanax,Alpraem,White,Tablet,Not Stated,Not Stated,Alprazolam,,51.5625,-0.074
W066489,08 Jul 2025,BT47,Clonazepam,Galenika Rivotril Klonazepam,White,Tablet,Not Stated,Not Stated,Clonazepam,,54.94983333333333,-7.084177777777778
W066497,08 Jul 2025,CH6,Flualprazolam,Vader,White,Tablet,Not Stated,Not Stated,Desalkylgidazepam,,53.255125,-3.1489
W066439,08 Jul 2025,SY7,Xanax,Alprazolam,White,Tablet,Not Stated,Not Stated,Caffeine,Clobromazolam,52.436390540540536,-2.832714864864865
000232280,03 Jul 2025,CF83,Valium,Diazepam,White,Tablet,Oral,"Relaxed, Nausea",Diazepam,,51.59288333333333,-3.2333833333333337
000043487,03 Jul 2025,CF83,Valium MSJ,MSJ,Blue,Tablet,Oral,Relaxed,Ethylbromazolam,,51.59288333333333,-3.2333833333333337
W066399,03 Jul 2025,AL74,Xanax Alprazolam,Rlam-1,White,Tablet,Oral,"Euphoria, Increased Confidence, Relaxed",Tramadol,,51.7969,-0.1871
W066380,03 Jul 2025,CF24,Alprazolam 1mg,Kalol Alprazolam 1mg,White,Tablet,Not Stated,Not Stated,Bromazolam,,51.48,-3.18
W066381,03 Jul 2025,CF24,Alprazolam 1mg,Alprx -1 Alprazolam 1mg,White,Tablet,Not Stated,Not Stated,Alprazolam,,51.48,-3.18
W066472,03 Jul 2025,BN1,Xanax (2mg ER),Xanac ER (MP),White,Tablet,Not Stated,Not Stated,Alprazolam,,50.8614,-0.1204166666666666
W066443,03 Jul 2025,DN58,Diazepam,valium,Blue,Tablet,Not Stated,Not Stated,Diazepam,,53.53578181818182,-1.229072727272727
000234094,03 Jul 2025,NP20,benzo,Not Stated,Blue,Tablet,Not Stated,Not Stated,Diazepam,,51.5877,-2.9984
W066414,03 Jul 2025,TR1,Alprazolam,Alprazolam,White,Tablet,Not Stated,Not Stated,Alprazolam,,50.2637,-5.06268
W066404,03 Jul 2025,E15,Xanax,Ksalol 1mg Alprazolam,"White, Blue",Tablet,Oral,"Euphoria, Relaxed",Bromazolam,,51.5333,0.0
W066407,02 Jul 2025,M4,Clonazepam 2mg,Clonazepam IP 2mg,White,Tablet,Not Stated,Not Stated,Clonazepam,,53.4809,-2.2374
W066446,03 Jul 2025,B90,Alprazolam,Rlam-1,White,Tablet,Oral,"Increased Confidence, Relaxed, Memory Loss",No Active Component Identified,,52.4107,-1.8195
W066402,03 Jul 2025,DN58,Diazepam,bensedin,White,Tablet,Not Stated,Not Stated,Diazepam,,53.53578181818182,-1.229072727272727
W066444,03 Jul 2025,DN58,Diazepam 5mg,Accord Diazepam,Yellow,Tablet,Not Stated,Not Stated,Diazepam,,53.53578181818182,-1.229072727272727
W066401,03 Jul 2025,DN58,Diazepam,Elipam 10,White,Tablet,Not Stated,Not Stated,Diazepam,,53.53578181818182,-1.229072727272727
W066469,03 Jul 2025,BN1,Clonazepam,Clonazepam,White,Tablet,Not Stated,Not Stated,Clonazepam,,50.8614,-0.1204166666666666
W066383,02 Jul 2025,AB39,Benzidine-diazepam,valium Diazepam,Blue,Tablet,Oral,Relaxed,Diazepam,,56.9773,-2.2184
W066352,02 Jul 2025,SK15,Temazepam,temazepam tablet 20mg,White,Tablet,Oral,Relaxed,Ethylbromazolam,,53.4841,-2.0591
W066408,02 Jul 2025,NE3,Diazepam 10mg,martin diazepam 10mg,Blue,Tablet,Oral,Relaxed,Diazepam,,55.003175,-1.6339
W066436,02 Jul 2025,N1,Accord 10mg Diazepam,Accord Diazepam 10mg,Blue,Tablet,Oral,"Relaxed, Paranoia",Diazepam,,51.53669,-0.0944
W066369,02 Jul 2025,AL5,Diazepam,Valium 10mg tablet (diazepam),Blue,Tablet,Not Stated,Not Stated,Diazepam,,51.8168,-0.3571
W066375,02 Jul 2025,W9,Alprazolam,RLAM alprazolam,White,Tablet,Not Stated,Not Stated,Tramadol,,51.52442,-0.18458
W066428,02 Jul 2025,CF64,Diazepam,Diazepam,White,Tablet,Oral,Not Stated,Bromazolam,,51.42878,-3.21045
W066374,02 Jul 2025,L24,Xanax,Xanax,White,Tablet,Not Stated,Not Stated,"Etizolam, Alprazolam",,53.3407,-2.841
W065598,02 Jul 2025,Unknown,Alprazolam,Alprazolam,White,Tablet,Oral,Relaxed,Tramadol,,,
W066131,02 Jul 2025,BT5,Diazepam,Not Stated,Blue,Tablet,Not Stated,Not Stated,Diazepam,,54.58087142857143,-5.875314285714286
W066343,02 Jul 2025,RG1,Diazepam,Not Stated,Blue,Tablet,Oral,No Effect,Diazepam,,51.4563,-0.9711
W066342,02 Jul 2025,GU15,Clonazepam 2mg,Rnaze clonazepam,"White, Yellow",Tablet,Not Stated,Not Stated,Clonazepam,,51.337,-0.7426
W062736,02 Jul 2025,EH22,Xanax Alprazolam,Alprazolam,White,,Oral,"Increased Confidence, Relaxed",Alprazolam,,55.90278333333333,-3.078175
W066367,02 Jul 2025,NG11,Diazepam 10mg tablet,martin dow valium 10mg,Blue,Tablet,Oral,"Euphoria, Increased Confidence, Empathy, Relaxed, Memory Loss, Confusion",Diazepam,,52.87862,-1.19524
W066305,02 Jul 2025,DN1,Clonazepam,Clonazepam,White,Tablet,Not Stated,Not Stated,Clonazepam,,53.5228,-1.1312
W066338,02 Jul 2025,CV9,diazepam,Diazepam,White,Tablet,Oral,"Euphoria, Increased Confidence, Empathy, Relaxed, Memory Loss, Confusion",Diazepam,,52.593988888888894,-1.561288888888889
000235772,02 Jul 2025,CF45,valium,valium,Blue,Tablet,Not Stated,Not Stated,Diazepam,,51.66452,-3.3537
W066275,02 Jul 2025,B56,Diazepam,martin dow valium 10mg,Blue,Tablet,Oral,"Increased Confidence, Relaxed",Diazepam,,,
W066186,02 Jul 2025,KW1,Lorazepam,LN,White,Tablet,Oral,"Relaxed, Irregular Heartbeat, Memory Loss, Loss of consciousness",Lorazepam,,58.474271875,-3.2428062499999997
000231424,02 Jul 2025,NP20,valium,street valium,White,Tablet,Not Stated,Not Stated,Diazepam,,51.5877,-2.9984
000235565,02 Jul 2025,NP12,Alprazolam,Not Stated,White,Tablet,Oral,Not Stated,Alprazolam,,51.6678,-3.2075
W065730,01 Jul 2025,G466,Diazepam 10mg accord,Diazepam 10mg Accord,Blue,Tablet,Oral,"No Effect, Relaxed",Ethylbromazolam,,55.8037,-4.2949
000235563,01 Jul 2025,NP20,Lorazepam,Not Stated,White,Tablet,Oral,Not Stated,Lorazepam,,51.5877,-2.9984
W066277,01 Jul 2025,BS6,Clonazepam,Rnase-2 Clonazepam 2mg,White,Tablet,Oral,"Increased Confidence, Relaxed",Clonazepam,,51.465599999999995,-2.599066666666667
W066276,01 Jul 2025,BS6,Diazepam,bensedin Diazepam 10mg,White,Tablet,Not Stated,Not Stated,Diazepam,,51.465599999999995,-2.599066666666667
W066259,01 Jul 2025,HD8,Zolpidem,Zopidem,White,Tablet,Oral,"Relaxed, Memory Loss, Headache",Ethylbromazolam,,53.59509166666667,-1.665125
000236419,01 Jul 2025,NP20,heroin,Not Stated,Brown,Powder,Not Stated,Not Stated,"Paracetamol, Noscapine, Heroin, Caffeine, Diazepam","Etonitazene, 6-Acetylcodeine, 6-MAM, Papaverine, Metonitazene",51.5877,-2.9984
W066310,01 Jul 2025,CF62,Diazepam ,galenika Bensidin,White,Tablet,Oral,"Empathy, Relaxed",Diazepam,,51.4027,-3.37145
W066264,01 Jul 2025,KT13,Diazepam,Valium,Blue,,Oral,Relaxed,Diazepam,,51.3722,-0.453
W066255,01 Jul 2025,DN58,valium,Elipam,White,Tablet,Not Stated,Not Stated,Diazepam,,53.53578181818182,-1.229072727272727
W066254,01 Jul 2025,DN58,Valium,Elipam,White,Tablet,Not Stated,Not Stated,Diazepam,,53.53578181818182,-1.229072727272727
W066123,01 Jul 2025,Unknown,Alprazolam,Not Stated,White,Tablet,Not Stated,Not Stated,Clonazepam,,,
W066319,01 Jul 2025,E2,Diazepam,Terapia 10mg,White,Tablet,Oral,No Effect,Bromazolam,,51.5386,-0.055525
W066320,01 Jul 2025,E2,Alprazolam,Ksalol,"White, Blue",Capsule,Oral,No Effect,Bromazolam,,51.5386,-0.055525
W066316,01 Jul 2025,AB44,Diazepam,valium ,Blue,Tablet,Oral,"Euphoria, Increased Energy, Increased Confidence, Increased Stamina, Increased Libido, Increased Strength, Relaxed, Memory Loss, Agitation, Insomnia",Diazepam,,57.6692,-2.49465
W066279,01 Jul 2025,TQ2,Diazepam,Not Stated,Blue,Tablet,Oral,Not Stated,Diazepam,,50.4762,-3.546
W066220,01 Jul 2025,LE8,Diazepam, valium 10mg Martin dowe,Blue,Tablet,Not Stated,Not Stated,Diazepam,,52.54881176470588,-1.0493705882352942
W066180,01 Jul 2025,SO40,Diazepam 10mg,Accord Diazepam 10mg tablet,Blue,Tablet,Oral,Relaxed,Ethylbromazolam,,50.91249375,-1.51341875
W066241,01 Jul 2025,NG31,Diazepam,Valium,Blue,Tablet,Not Stated,Not Stated,Ethylbromazolam,,52.9255,-0.6468
W065499,01 Jul 2025,G46,Diazepam 10mg Accord,Diazepam accord 10mg,Blue,Tablet,Oral,Relaxed,Paracetamol,,55.8037,-4.2949
W066179,01 Jul 2025,RM14,Alprazolam,Xanac 2mg Bar,White,Tablet,Oral,"Euphoria, Increased Confidence, Relaxed, Nausea, Vomiting","Cocaine, Phenacetin","N-desethylisotonitazene, Ketamine",51.554525,0.273875
W066205,01 Jul 2025,YO31,Diazepam 10mg,Bensedin -diazepam 10mg,White,Tablet,Oral,Relaxed,Bromazolam,,53.9576,-1.0827
W066212,01 Jul 2025,IV36,Lorazepam,Not Stated,"White, Blue",Tablet,Oral,"Increased Confidence, Increased Libido, Relaxed",Lorazepam,,57.61094054054054,-3.6021297297297297
W065716,01 Jul 2025,BT18,Diazepam,Sedil MP,White,Tablet,Not Stated,Not Stated,Diazepam,,54.6386,-5.8247
W065715,01 Jul 2025,BT18,Clonazepam,Rnase MP,White,Tablet,Not Stated,Not Stated,Clonazepam,,54.6386,-5.8247
W065712,01 Jul 2025,BT18,Alprazolam-ng,Ksolol,Blue,Tablet,Not Stated,Not Stated,Ethylbromazolam,,54.6386,-5.8247
W065714,01 Jul 2025,BT18,Alprazolam SF,Rlam-1,White,Tablet,Not Stated,Not Stated,Tramadol,,54.6386,-5.8247
W065713,01 Jul 2025,BT18,bensedin-ng,Diazepam,White,Tablet,Not Stated,Not Stated,Ethylbromazolam,,54.6386,-5.8247
W066132,01 Jul 2025,DN12,Diazepam,martin dow,Blue,Tablet,Not Stated,Not Stated,Diazepam,,53.4851,-1.2453
W066181,01 Jul 2025,NR18,Alprazolam 1mg,Tehran darou 1mg,Blue,Tablet,Oral,Relaxed,Alprazolam,,52.57489230769231,1.0953538461538463
000043099,01 Jul 2025,LL55,valium,Valium,Blue,Tablet,Oral,Not Stated,Diazepam,,53.12915357142857,-4.195053571428572
W066165,01 Jul 2025,KY3,Diazepam,Diazepam,Yellow,Tablet,Not Stated,Not Stated,Diazepam,,56.05788,-3.2186399999999997
W066146,25 Jun 2025,SW2,Diazepam,Not Stated,White,Tablet,Not Stated,Relaxed,Bromazolam,,51.4548,-0.1158
W066143,01 Jul 2025,DD5,Diazepam ,Accord diazepam 5mg,Yellow,Tablet,Oral,"Euphoria, Relaxed",Diazepam,,56.48408823529412,-2.8548705882352943
000236505,01 Jul 2025,CF39,Diazepam,Not Stated,Blue,Tablet,Not Stated,Not Stated,Ethylbromazolam,,51.5988125,-3.447975
W066213,01 Jul 2025,LE19,klonapin,klonapin,White,Tablet,Not Stated,Not Stated,Clonazepam,,52.5846,-1.2053
W066190,01 Jul 2025,TS19,Diazepam,Not Stated,Blue,Tablet,Oral,"Euphoria, Relaxed, Memory Loss, Loss of consciousness, Depression",Bromazolam,,54.5685,-1.3187
W066139,01 Jul 2025,LA12,Diazepam,Accord 5mg Diazepam,Yellow,Tablet,Oral,"Euphoria, Relaxed, Memory Loss, Depression",Diazepam,,54.20815897435897,-3.0659179487179484
W066140,01 Jul 2025,LS12,Diazepam,Accord Diazepam 10mg,Blue,Tablet,Not Stated,Not Stated,Bromazolam,,53.7913,-1.5972
W066174,25 Jun 2025,NE3,Diazepam,Bensedin Diazepam,White,Tablet,Oral,Relaxed,Diazepam,,55.003175,-1.6339
W065985,25 Jun 2025,SA16,MSJ,Not Stated,Blue,Tablet,Not Stated,Not Stated,Ethylbromazolam,,51.68593333333333,-4.261566666666667
000236294,25 Jun 2025,CF83,Valium,Not Stated,White,,Oral,Relaxed,Diazepam,,51.59288333333333,-3.2333833333333337
W066160,25 Jun 2025,SA3,Clonazepam,Klonazepam Rivotril,White,Tablet,Oral,No Effect,Clonazepam,,51.59142222222222,-4.136385185185185
W066176,25 Jun 2025,NE3,Diazepam ,Bensedin Diazepam,White,Tablet,Oral,Relaxed,Diazepam,,55.003175,-1.6339
W066115,25 Jun 2025,TR18,Diazepam,Not Stated,Yellow,Tablet,Oral,No Effect,Diazepam,,50.120720000000006,-5.537180000000001
W066003,25 Jun 2025,L13,Etizolam,Neurozol,White,Tablet,Oral,"Relaxed, Memory Loss",Etizolam,,53.4179,-2.9206
W066145,25 Jun 2025,SW2,Diazepam,Not Stated,Pink,Tablet,Oral,"Increased Confidence, Relaxed",Diazepam,,51.4548,-0.1158
000237993,25 Jun 2025,CF37,Diazepam,Not Stated,Blue,Tablet,Oral,"Euphoria, Increased Energy, Increased Confidence, Enhanced Senses",Diazepam,,51.613815384615386,-3.3598076923076925
W066151,25 Jun 2025,DN59,Diazepam,Not Stated,Blue,Tablet,Oral,Relaxed,Clobromazolam,,53.53578181818182,-1.229072727272727
W066124,25 Jun 2025,SW2,Valium,Martin Dow valium,Blue,Tablet,Not Stated,Not Stated,Diazepam,,51.4548,-0.1158
W065937,25 Jun 2025,NP20,Xanax Alprazolam,Rlam,White,Tablet,Oral,No Effect,Tramadol,,51.5877,-2.9984
W065881,25 Jun 2025,WA7,Valium,Not Stated,Yellow,Tablet,Oral,"Euphoria, Increased Confidence, Relaxed",Diazepam,,53.324125,-2.7118
W066127,25 Jun 2025,SW12,Valium (Diazepam) tablets,Not Stated,Blue,Tablet,Not Stated,Not Stated,Diazepam,,51.4469,-0.1384
W066110,25 Jun 2025,E17,Diazepam,Valium Diazepam,Blue,Tablet,Not Stated,Not Stated,Diazepam,,51.58758,-0.02048
W066111,25 Jun 2025,E17,Diazepam,Valium Diazepam,Blue,Tablet,Not Stated,Not Stated,Diazepam,,51.58758,-0.02048
W066125,25 Jun 2025,NN2,Diazepam,Diazepam Accord,Blue,Tablet,Oral,"Relaxed, Memory Loss",Ethylbromazolam,,52.27265,-0.90015
W065992,25 Jun 2025,SG14,valium / Diazepam 10mg,Not Stated,Blue,Tablet,Not Stated,Not Stated,Diazepam,,51.811775,-0.11705
W065968,25 Jun 2025,W2,Alprazolam,Xanax 2mg,White,Tablet,Oral,Not Stated,Alprazolam,,51.51413636363636,-0.1886454545454545
W065726,25 Jun 2025,SW19,Clomazepam 2mg tehran darou,Not Stated,White,Tablet,Oral,Relaxed,Clonazepam,,51.42343333333333,-0.1973333333333333
W065725,25 Jun 2025,SW19,Ksalol Xanax 1mg,Ksalol Galenika ,Blue,Tablet,Oral,"Relaxed, Memory Loss",Alprazolam,,51.42343333333333,-0.1973333333333333
W065943,25 Jun 2025,PA16,Diazepam,Bensedin galenika (diazepam) 10mg,White,Tablet,Oral,Relaxed,Bromazolam,,55.9369,-4.8064599999999995
000237992,25 Jun 2025,CF37,Diazepam,Diazepam,Blue,Tablet,Not Stated,Relaxed,Diazepam,,51.613815384615386,-3.3598076923076925
W065901,25 Jun 2025,LL18,Diazepam,Not Stated,Yellow,Tablet,"Oral, Intravenous","Loss of consciousness, Breathlesness",Diazepam,,53.291819999999994,-3.45482
000233518,25 Jun 2025,NP20,lativian diazepam 5mg,Not Stated,White,Tablet,Oral,Relaxed,Diazepam,,51.5877,-2.9984
W065921,25 Jun 2025,BR7,Alprazolam,Kern Pharma 2mg,White,Tablet,Oral,Relaxed,"Paracetamol, Ethylbromazolam",,51.4171,0.0686
W065942,24 Jun 2025,PA16,Diazepam,Cox 10,White,Tablet,Not Stated,Not Stated,No Active Component Identified,,55.9369,-4.8064599999999995
W065708,24 Jun 2025,G63,Xanax,Red devils 5.5mg Alprazolam,"Pink, Red",Tablet,Not Stated,Not Stated,"Caffeine, Clobromazolam",,56.03654399999999,-4.3500119999999995
W065963,24 Jun 2025,CV21,clonazepam,Not Stated,Blue,Tablet,Not Stated,Not Stated,Clobromazolam,,52.3811,-1.2754
W065953,24 Jun 2025,GL53,lorazepam,Nerodelm-2,Yellow,Tablet,Not Stated,Not Stated,Lorazepam,,51.8192,-2.05427
W065710,24 Jun 2025,G65,Xanax,Xanax 4mg GG249,White,Tablet,Not Stated,Not Stated,Bromazolam,,55.97357000000001,-4.05812
W065899,24 Jun 2025,TD1,valium,Not Stated,Blue,Tablet,Oral,"Increased Energy, Insomnia",Etizolam,,55.66659333333334,-2.8606933333333333
W065970,24 Jun 2025,CV2,Temazepam,Not Stated,White,Tablet,Not Stated,Not Stated,Clonazepam,,52.424525,-1.459175
W065916,24 Jun 2025,CV21,Xanax alprazolam,Xanax alprazolam,White,Tablet,Not Stated,Not Stated,"Caffeine, Clobromazolam",,52.3811,-1.2754
W065898,24 Jun 2025,SA4,Clonazepam,Clonazepam,White,Tablet,Oral,Relaxed,Clonazepam,,51.670225,-4.059125
W065909,24 Jun 2025,PE7,Diazepam,Dizpam-10,White,Tablet,Oral,Relaxed,Diazepam,,52.51083125,-0.27019375
W065908,24 Jun 2025,PE7,diazepam,Diaze-10.0,White,Tablet,Oral,Relaxed,Diazepam,,52.51083125,-0.27019375
W065198,24 Jun 2025,SW22,Diazepam mg tablets,Diazepam 5mg tablets accord,Yellow,Tablet,Not Stated,Not Stated,Diazepam,,51.4548,-0.1158
W065905,24 Jun 2025,BN3,Xanax,Xanax,White,Tablet,Oral,"Memory Loss, Relaxed",Alprazolam,,50.836725,-0.179625
W065860,24 Jun 2025,G41,Clonazepam,Clonazepam neurazpharm 2mg,White,Tablet,Oral,"No Effect, Confusion, Agitation",Clonazepam,,55.8376,-4.2843
W065887,24 Jun 2025,WV6,10mg Diazepam,10mg diazepam accord,Blue,Tablet,Not Stated,Not Stated,Diazepam,,52.59424545454545,-2.2206454545454544
W065912,24 Jun 2025,WR10,Alprazolam,Alprazolam,White,Tablet,Not Stated,Not Stated,Tramadol,,52.11444545454546,-2.047613636363636
W065914,24 Jun 2025,N15,Diazepam/ valium,diazepam,Blue,Tablet,Not Stated,Not Stated,Paracetamol,,51.584300000000006,-0.073
W065886,24 Jun 2025,WV6,Diazepam 10mg,Diazepam 10mg teva,Blue,Tablet,Not Stated,Not Stated,Diazepam,,52.59424545454545,-2.2206454545454544
000236857,24 Jun 2025,CF63,Alprazolam,Alprazolam 1mg,White,Tablet,Not Stated,Not Stated,Tramadol,,51.4172,-3.2614
W065902,24 Jun 2025,SA42,lorazepam 1mg,Lorazepam,White,Tablet,Oral,"Increased Energy, Relaxed, Irregular Heartbeat",Lorazepam,,52.0168,-4.842714285714286
W065888,24 Jun 2025,WV6,Diazepam 10mg,Diazepam 10mg,Blue,Tablet,Not Stated,Not Stated,Diazepam,,52.59424545454545,-2.2206454545454544
W065874,24 Jun 2025,B32,Pyrazolam,Pyrazolam,Orange,Tablet,Not Stated,Not Stated,Pyrazolam,,52.4326,-1.99735
W065864,24 Jun 2025,GU26,Diazepam,Elipam-5,White,Tablet,Not Stated,Not Stated,Diazepam,,51.1138,-0.7334999999999999
W065910,24 Jun 2025,PA16,Diazepam (Benzo),Not Stated,White,Tablet,Oral,No Effect,No Active Component Identified,,55.9369,-4.8064599999999995
W065859,24 Jun 2025,G41,Diazepam,MSJ Diazepam 10mg,White,Tablet,Oral,"Euphoria, Increased Confidence, Memory Loss, Violence/Aggression",Bromazolam,,55.8376,-4.2843
W065846,24 Jun 2025,BH9,Diazepam,bensedin (galenika) 10mg,White,Tablet,Not Stated,Not Stated,Bromazolam,,50.7497,-1.8734
W065816,24 Jun 2025,DN58,Diazepam,Bensedin 10mg,White,Tablet,Not Stated,Not Stated,Bromazolam,,53.53578181818182,-1.229072727272727
W065890,24 Jun 2025,TA21,Nitrazepam,Nitrazepa tablet 1p nitascan-10,White,Tablet,Oral,Not Stated,Nitrazepam,,50.97908571428571,-3.2824380952380956
W065889,24 Jun 2025,TA21,Zolpidem,Zolpidem teva 10mg,White,Tablet,Oral,Insomnia,Bromazolam,,50.97908571428571,-3.2824380952380956
W065885,24 Jun 2025,TA21,Xanax,Alprazolam tablet 1p 1mg,White,Tablet,Oral,Not Stated,Alprazolam,,50.97908571428571,-3.2824380952380956
W065739,24 Jun 2025,CO7,alprazolam,Ksalol,Blue,Tablet,Not Stated,Not Stated,Alprazolam,,51.887447826086955,1.0088478260869564
W065773,24 Jun 2025,B90,Alprazolam,Not Stated,"White, Grey",Tablet,Oral,Relaxed,Bromazolam,,52.4107,-1.8195
W065799,20 Jun 2025,CH6,Xanax,Darth Vader,White,Tablet,Not Stated,Not Stated,desalkylflurazepam,,53.255125,-3.1489
000232133,20 Jun 2025,NP4,Diazepam,Not Stated,Blue,Tablet,Not Stated,Not Stated,Diazepam,,51.718515789473685,-3.030521052631579
000234281,20 Jun 2025,NP4,Diazepam,Not Stated,Blue,Tablet,Not Stated,Not Stated,Diazepam,,51.718515789473685,-3.030521052631579
W065738,20 Jun 2025,CO7,Clonazepam,rivotril,White,Tablet,Not Stated,Not Stated,Clonazepam,,51.887447826086955,1.0088478260869564
W065873,20 Jun 2025,DD5,Diazepam,Accord,Blue,Tablet,Oral,No Effect,Ethylbromazolam,,56.48408823529412,-2.8548705882352943
W065894,20 Jun 2025,GU15,Clonazepam,Rnaze Clonazepam,White,Tablet,Not Stated,Not Stated,Clonazepam,,51.337,-0.7426
W065815,20 Jun 2025,DN58,Diazepam,Elipam,White,Tablet,Not Stated,Not Stated,Diazepam,,53.53578181818182,-1.229072727272727
W065774,20 Jun 2025,M19,Valium (diazepam,Valium (Martin Dow),Blue,Tablet,Not Stated,Not Stated,Diazepam,,53.4327,-2.1997
W065823,20 Jun 2025,SE1,Valium,Not Stated,Blue,Tablet,Not Stated,Not Stated,Diazepam,,51.49874615384616,-0.0930384615384615
W065831,20 Jun 2025,L24,Diazepam,Bensedin Galenika,White,Tablet,Not Stated,Not Stated,Ethylbromazolam,,53.3407,-2.841
W065498,20 Jun 2025,G4,bensedin ,Bensedin,White,Tablet,Oral,Relaxed,Diazepam,,55.8651,-4.2576
W065557,20 Jun 2025,SA1,Benzodiazepines,Not Stated,Blue,Tablet,Not Stated,Not Stated,Ethylbromazolam,,51.633979999999994,-3.94848
000234558,20 Jun 2025,CF11,Cloonazepam,Neuraxpharm,White,Tablet,Oral,"Euphoria, Relaxed, Irregular Heartbeat, Memory Loss",Clonazepam,,51.48,-3.18
000234560,20 Jun 2025,CF11,Clonazepam,Neuroxpharm,White,Tablet,Not Stated,Not Stated,Clonazepam,,51.48,-3.18
W065529,20 Jun 2025,BH9,Diazepam,martin dow,Blue,Tablet,Not Stated,Not Stated,Diazepam,,50.7497,-1.8734
W065532,20 Jun 2025,BH9,Diazepam,Martin Dow Diazepam,Blue,Tablet,Oral,Relaxed,Diazepam,,50.7497,-1.8734
W065797,20 Jun 2025,S8,Diazepam,Bensedin Diaezpam,White,Tablet,Oral,Relaxed,Diazepam,,53.3439,-1.47815
W065761,20 Jun 2025,BT36,XANAX,XANAX 2MG,White,Tablet,Not Stated,Not Stated,Caffeine,Clobromazolam,54.675533333333334,-5.9483
W065759,20 Jun 2025,BT36,XANAX,ALPRX-1,White,Tablet,Not Stated,Not Stated,Alprazolam,,54.675533333333334,-5.9483
W065744,20 Jun 2025,NN12,XANAX,XANAX,,,Not Stated,Not Stated,Alprazolam,,52.12114285714286,-1.03124
W065743,20 Jun 2025,NN12,VALIUM ,VALIUM ,White,Tablet,Oral,Not Stated,Diazepam,,52.12114285714286,-1.03124
W065703,20 Jun 2025,LA13,CLONAZEPAM,KLOZAPS-2,White,Tablet,Not Stated,Not Stated,Clonazepam,,54.11367142857143,-3.193485714285714
W065706,20 Jun 2025,LA13,CLONAZEPAM,KLOZAPS-2,White,Tablet,Not Stated,Not Stated,Clonazepam,,54.11367142857143,-3.193485714285714
000234977,20 Jun 2025,CF41,DIAZEPAM,Not Stated,Blue,Tablet,Not Stated,Not Stated,Ethylbromazolam,,51.6543,-3.4913
W065702,20 Jun 2025,LA13,clonazepam,klozapr-2,White,Tablet,Not Stated,Not Stated,Clonazepam,,54.11367142857143,-3.193485714285714
W065705,20 Jun 2025,LA13,clonazepam,klozaps-2 ,White,Tablet,Not Stated,Not Stated,Clonazepam,,54.11367142857143,-3.193485714285714
W065704,20 Jun 2025,LA13,clonazepam,Klozaps-2,White,Tablet,Not Stated,Not Stated,Clonazepam,,54.11367142857143,-3.193485714285714
000234980,20 Jun 2025,CF40,diazepam 10mg,Not Stated,Blue,Tablet,Oral,No Effect,Ethylbromazolam,,51.627316666666665,-3.461883333333333
W065794,17 Jun 2025,M14,Clonazepam,Rnaze,White,Tablet,Not Stated,Not Stated,Clonazepam,,53.4482,-2.2257
000236501,17 Jun 2025,CF39,Valium,Not Stated,Blue,Liquid,Not Stated,Not Stated,Diazepam,,51.5988125,-3.447975
000235744,17 Jun 2025,CF39,MSJ,Not Stated,Blue,Tablet,Not Stated,Not Stated,Ethylbromazolam,,51.5988125,-3.447975
W065667,17 Jun 2025,ML3,Xanax,Not Stated,White,Tablet,Oral,"Relaxed, Memory Loss",Ethylbromazolam,,55.76254285714286,-4.045457142857143
W065530,17 Jun 2025,BH9,Diazepam,Martin Dow,Blue,Tablet,Not Stated,Not Stated,Diazepam,,50.7497,-1.8734
W065769,17 Jun 2025,TR1,Alprazolam,Alprax,Orange,Tablet,Not Stated,Not Stated,Alprazolam,,50.2637,-5.06268
W065665,17 Jun 2025,CH6,Xanax,Instagram,White,Tablet,Not Stated,Not Stated,Caffeine,Clobromazolam,53.255125,-3.1489
W065666,17 Jun 2025,CH6,Xanax,Not Stated,White,Tablet,Not Stated,Not Stated,Ethylbromazolam,,53.255125,-3.1489
W065752,17 Jun 2025,LS18,Diazepam,Not Stated,White,Tablet,Not Stated,Not Stated,Bromazolam,,53.838,-1.6404
W065745,17 Jun 2025,MK40,Diazepam tablets,Galenika bensedin diazepam,White,Tablet,Oral,"Agitation, Headache",Bromazolam,,52.13655,-0.4866
W065531,17 Jun 2025,BH9,Diazepam,Martin Dow Diazepam,Blue,Tablet,Oral,Relaxed,Diazepam,,50.7497,-1.8734
W065600,17 Jun 2025,HP22,Clonazepam,rivotril galenika,White,Tablet,Oral,"Relaxed, Irregular Heartbeat","Paracetamol, Bromazolam",,51.83288095238095,-0.786652380952381
W065563,17 Jun 2025,BT93,Diazepam,Not Stated,Blue,Tablet,Not Stated,Relaxed,Bromazolam,,54.44256,-7.86492
W065485,17 Jun 2025,PL22,Diazepam,Not Stated,Blue,Tablet,Oral,Relaxed,Diazepam,,50.39221111111111,-4.640277777777778
W065696,17 Jun 2025,G41,Alprazolam,Xanax,"Green, Blue",Tablet,Oral,"Increased Confidence, Relaxed, Memory Loss",Bromazolam,,55.8376,-4.2843
W065680,17 Jun 2025,LU73,Alprazolam,Not Stated,White,Tablet,Not Stated,Not Stated,Alprazolam,,51.89277307692308,-0.6581499999999999
W065552,17 Jun 2025,SE4,Alprazolam,Xanax,Blue,Tablet,Not Stated,Not Stated,Ethylbromazolam,,51.46099999999999,-0.0352
W065476,17 Jun 2025,N15,Diazepam,Not Stated,Yellow,Tablet,Not Stated,Not Stated,Diazepam,,51.584300000000006,-0.073
W065695,17 Jun 2025,BS3,Diazepam,Valium,Blue,Tablet,Oral,"Increased Confidence, Relaxed, Paranoia",Diazepam,,51.4552,-2.5966
W065681,17 Jun 2025,LU73,Diazepam,Not Stated,Blue,Tablet,Not Stated,Not Stated,Diazepam,,51.89277307692308,-0.6581499999999999
W065690,17 Jun 2025,MK14,Valium,Not Stated,Blue,Tablet,Not Stated,Not Stated,Diazepam,,52.0656,-0.7591
W065686,17 Jun 2025,SK13,Diazepam,Teva,Blue,Tablet,Not Stated,Not Stated,Diazepam,,53.4433,-1.949
W065687,17 Jun 2025,SK13,Diazepam,Teva,Blue,Tablet,Not Stated,Not Stated,Diazepam,,53.4433,-1.949
W065467,17 Jun 2025,NP20,Diazepam,Not Stated,White,Tablet,Not Stated,Not Stated,Diazepam,,51.5877,-2.9984
W065664,17 Jun 2025,KY12,Diazepam,Not Stated,White,Tablet,Oral,"Relaxed, Agitation",Clozapine,,56.087095,-3.539235
W065669,17 Jun 2025,EH54,Diazepam,Not Stated,White,Tablet,Oral,"Increased Confidence, Relaxed","Etizolam, Paracetamol",,55.9029,-3.5226
W065683,17 Jun 2025,SK13,Diazepam,Accord,Blue,Tablet,Not Stated,Not Stated,Diazepam,,53.4433,-1.949
W065553,17 Jun 2025,CF44,Diazepam,Not Stated,Blue,Tablet,Oral,"Euphoria, Increased Energy, Increased Confidence, Relaxed",Diazepam,,51.7327125,-3.48293125
000234075,17 Jun 2025,NP10,MSJ,Not Stated,Blue,Tablet,Not Stated,Not Stated,"Paracetamol, Bromazolam",,51.5877,-2.9984
W065469,17 Jun 2025,HX39,Nitrazepam,Not Stated,White,Tablet,Oral,"Relaxed, Memory Loss",Nitrazepam,,53.72608333333333,-1.8416
W065691,17 Jun 2025,G12,Valium,Martin Dow,Blue,Powder,Not Stated,Not Stated,Diazepam,,55.8804,-4.3007
W065657,16 Jun 2025,E17,Diazepam,Not Stated,Blue,Tablet,Not Stated,Not Stated,Clobromazolam,,51.58758,-0.02048
W065540,16 Jun 2025,N2,Clonazepam,Galenika Rivotril Klonazepam,White,Tablet,Not Stated,Not Stated,Clonazepam,,51.59,-0.1531
W065541,16 Jun 2025,N2,Zopiclone,Zop tablets,White,Tablet,Not Stated,Not Stated,Clonazepam,,51.59,-0.1531
W065592,16 Jun 2025,SE1,Diazepam,Not Stated,Blue,Tablet,Not Stated,Not Stated,Diazepam,,51.49874615384616,-0.0930384615384615
W064841,16 Jun 2025,NE29,Clonazepam,Klozaps,White,Tablet,Not Stated,Not Stated,Clonazepam,,55.0165,-1.4493
W065545,16 Jun 2025,M25,Found,Not Stated,"Orange, Pink",Tablet,Not Stated,Not Stated,Bromazolam,,53.5333,-2.2833
W065535,16 Jun 2025,BN3,Diazepam,Not Stated,Blue,Tablet,Not Stated,Not Stated,Diazepam,,50.836725,-0.179625
W065524,16 Jun 2025,GU14,Diazepam,Bensedin Galenika,White,Tablet,Oral,"Euphoria, Relaxed, Paranoia, Confusion",Bromazolam,,51.2955,-0.7908
W065554,16 Jun 2025,PL24,Diazepam,Valium,Blue,Capsule,Not Stated,Not Stated,"Ethylbromazolam, Bromazolam",,50.3558,-4.7021125
W065520,16 Jun 2025,GL53,Lorazepam,Not Stated,White,Tablet,Not Stated,Not Stated,Lorazepam,,51.8192,-2.05427
W065521,16 Jun 2025,GU14,Alprazolam,Rlam-1,White,Tablet,Oral,"Euphoria, Relaxed, Paranoia, Panic Attack",Tramadol,,51.2955,-0.7908
W065448,16 Jun 2025,SW11,Diazepam,Not Stated,White,Tablet,Oral,Relaxed,Diazepam,,51.469166666666666,-0.1619333333333333
W065450,16 Jun 2025,SW8,Diazepam,Not Stated,White,Tablet,Oral,"Increased Confidence, Relaxed, Depression",Diazepam,,51.48162,-0.1276
W065452,16 Jun 2025,SW8,Clonazepam,Not Stated,White,Tablet,Oral,"Increased Confidence, Relaxed",Clonazepam,,51.48162,-0.1276
W065443,16 Jun 2025,E4,Alprazolam,Ksalol Alprazolam,Blue,Tablet,Not Stated,Not Stated,Ethylbromazolam,,51.6303,0.0005
W065504,16 Jun 2025,E4,alprazolam,Trankimarin Alprazolam,White,Tablet,Not Stated,Not Stated,Alprazolam,,51.6303,0.0005
W065454,16 Jun 2025,BD10,Bromazepam,Relaxin,Pink,Tablet,Not Stated,Not Stated,Bromazepam,,53.8328,-1.7255
W065575,16 Jun 2025,HP7,Valium,Not Stated,Blue,Tablet,Oral,Relaxed,Diazepam,,51.665483333333334,-0.6173166666666666
000234968,16 Jun 2025,CF44,Valium Diazepam,Not Stated,Blue,Tablet,Oral,Relaxed,Diazepam,,51.7327125,-3.48293125
W065510,16 Jun 2025,BA12,Diazepam,Not Stated,White,Tablet,Not Stated,No Effect,Ethylbromazolam,,51.15965263157895,-2.1517500000000003
W065483,13 Jun 2025,SA31,Diazepam,Not Stated,Blue,Tablet,Not Stated,Not Stated,Bromazolam,,51.85391,-4.30209
W059916,13 Jun 2025,CF72,Diazepam,Not Stated,Blue,Tablet,Not Stated,Not Stated,Bromazolam,,51.530146153846154,-3.408415384615384
W065491,13 Jun 2025,E11,Alprazolam,galenika Alprazolam,Blue,Tablet,Not Stated,Not Stated,Ethylbromazolam,,51.57656666666667,0.0171666666666666
W065494,13 Jun 2025,WA8,Xanax,Pfizer XR xanax,White,Tablet,Not Stated,Not Stated,Ethylbromazolam,,53.36992857142857,-2.7397142857142858
W065496,13 Jun 2025,WA8,Diazepam,bensedin 10mg Diazepam,White,Tablet,Not Stated,Not Stated,Ethylbromazolam,,53.36992857142857,-2.7397142857142858
W065497,13 Jun 2025,NW3,Diazepam,Elipam,White,Tablet,Not Stated,Not Stated,Diazepam,,51.5462,-0.168075
W065492,13 Jun 2025,E11,Alprazolam,Galenika Alprazolam,Blue,Tablet,Oral,"Increased Confidence, Relaxed, Memory Loss",Alprazolam,,51.57656666666667,0.0171666666666666
000236856,13 Jun 2025,CF63,Valium,Not Stated,Blue,Tablet,Oral,"Breathlesness, Memory Loss, Confusion, Loss of consciousness",Diazepam,,51.4172,-3.2614
W065315,28 May 2025,WA27,Diazepam,Almus 5mg Diazepam tablet,Yellow,Tablet,Not Stated,Not Stated,Diazepam,,53.416066666666666,-2.5810333333333335
W065317,28 May 2025,L2,Alprazolam,Viatris 0.5mg,Pink,Tablet,Not Stated,Not Stated,Alprazolam,,53.4106,-2.9779
W065262,28 May 2025,SW22,Diazepam 5mg tablet,teva Diazepam 5mg tablet,Yellow,Tablet,Not Stated,Not Stated,Diazepam,,51.4548,-0.1158
W065306,28 May 2025,ML6,Diazepam,10mg diazepam bensedin galenika,White,Tablet,Not Stated,Not Stated,Ethylbromazolam,,55.876992307692305,-3.925407692307692
W065417,28 May 2025,TS01,martin dow valium,valium 10mg,Blue,Tablet,Not Stated,Not Stated,Diazepam,,,
W065408,28 May 2025,BT47,Clonazepam,Clonazepam Rivotril galenika,White,Tablet,Oral,"Euphoria, Increased Energy, Relaxed",Clonazepam,,54.94983333333333,-7.084177777777778
W065370,28 May 2025,SN1,Xanax,Xanax 1mg tablet,White,Tablet,Oral,"Increased Confidence, Relaxed, Confusion",Clonazepam,,51.558,-1.7812
W065434,28 May 2025,SY10,red devil xanax,Not Stated,Red,Tablet,Not Stated,Not Stated,Caffeine,Clobromazolam,52.83394150943396,-3.1469735849056604
W065435,28 May 2025,SY10,Xanax,Not Stated,White,Tablet,Not Stated,Not Stated,Caffeine,Clobromazolam,52.83394150943396,-3.1469735849056604
W065261,28 May 2025,ML6,Diazepam,10mg Diazepam Bensedin galenika,White,Tablet,Not Stated,Not Stated,Ethylbromazolam,,55.876992307692305,-3.925407692307692
W065278,28 May 2025,GL12,Diazepam,Diazepam,Blue,Tablet,Not Stated,Not Stated,Diazepam,,51.62172777777778,-2.3947055555555554
W065293,28 May 2025,TN34,Zopiclone (10mg),Zopiclone IP 10mg,White,Tablet,Not Stated,Not Stated,Nitrazepam,,50.8552,0.5729
W065368,28 May 2025,YO11,Temazepam,Not Stated,Blue,Tablet,Oral,Not Stated,Bromazolam,,54.23711428571429,-0.3853571428571428
W065076,28 May 2025,CF10,Diazepam 5mg,Diazepam 5mg (accord),Yellow,Tablet,Oral,"Relaxed, Confusion",Diazepam,,51.48,-3.18
W065299,28 May 2025,SA5,valium / Diazepam,Diazepam ,Blue,Tablet,Oral,Relaxed,Diazepam,,51.64667142857143,-3.9853857142857145
W065320,28 May 2025,BA14,Alprazolam and etizaolam xanax bar,Xanax bar,White,Tablet,Oral,Not Stated,Etizolam,,51.32102,-2.1876733333333336
W065321,28 May 2025,BA14,Etizolam 1mg,neruozol-1,White,,Oral,"Euphoria, Relaxed, Memory Loss",Etizolam,,51.32102,-2.1876733333333336
000231580,28 May 2025,NP20,Diazepam,Diazepam,White,Tablet,Oral,"Relaxed, Memory Loss, Confusion",Diazepam,,51.5877,-2.9984
000231581,28 May 2025,NP20,Diazepam,bensedin,White,Tablet,Not Stated,Not Stated,Diazepam,,51.5877,-2.9984
W065322,28 May 2025,BA14,Clonazepam 2mg,Rnase-2,White,Tablet,Oral,"Euphoria, Increased Confidence, Relaxed",Clonazepam,,51.32102,-2.1876733333333336
W065336,28 May 2025,TR10,Diazepam/valium,Diazepam,Blue,Tablet,Not Stated,Not Stated,"Clobromazolam, Caffeine",,50.16754,-5.11564
000234941,06 Jun 2025,CF47,Diazepam 10mg,Diazepam 10mg,Blue,Tablet,Oral,"Euphoria, Relaxed",Diazepam,,51.7479,-3.3778
000234967,06 Jun 2025,CF37,valium Diazepam 10mg,Valium Diazepam 10mg,Blue,Tablet,Oral,Relaxed,Diazepam,,51.613815384615386,-3.3598076923076925
W065359,02 Jun 2025,WS13,Diazepam,Diazepam,Yellow,Tablet,Oral,"Relaxed, Irregular Heartbeat",Diazepam,,52.6953,-1.8076555555555551
000235405,30 May 2025,LD5,diazepam 10mg,diazepam 10mg Martin Dow,Blue,Tablet,Oral,Relaxed,Diazepam,,52.12708333333333,-3.6396333333333337
100004490,30 May 2025,WR9,diazepam 10mg,valium diazepam,Blue,Tablet,Not Stated,Euphoria,Diazepam,,52.26260476190476,-2.1635809523809524
W065284,30 May 2025,SE8,diazepam,Not Stated,White,Tablet,Not Stated,Not Stated,Diazepam,,51.4776,-0.0261
W065423,30 May 2025,TQ2,DIAZEPAM 10MG,DIAZEPAM 10MG,Black,Tablet,Not Stated,Not Stated,Diazepam,,50.4762,-3.546
W065300,30 May 2025,PH1,DIAZEPAM,Not Stated,White,Tablet,Not Stated,Not Stated,Phenazepam,,56.43174736842105,-3.4980552631578945
W065399,30 May 2025,N22,ALPRAZOLAM,ALPRAZOLAM KERN,White,Tablet,Not Stated,Not Stated,Ethylbromazolam,,51.6,-0.1167
W065094,30 May 2025,NE13,DIAZEPAM,ELIPOM DIAZEPAM,White,Tablet,Oral,"Euphoria, Increased Confidence, Relaxed",Diazepam,,55.0523,-1.6473666666666666
W062624,30 May 2025,KY11,valium,martin dow,Black,Tablet,Not Stated,Not Stated,Diazepam,,56.037644444444446,-3.422588888888889
W065395,30 May 2025,GU14,Alprazolam,Alpro-1mg,White,Tablet,Oral,"Euphoria, Increased Confidence, Relaxed",No Active Component Identified,,51.2955,-0.7908
W065156,06 Jun 2025,BT11,Clonazepam/Rivotril,Rivotril,White,Tablet,Not Stated,Not Stated,,,54.58096666666667,-5.9665
W065034,06 Jun 2025,BN3,Diazepam,Accord,Yellow,Tablet,Not Stated,Not Stated,,,50.836725,-0.179625
100004489,06 Jun 2025,SA11,Diazepam,MSJ,Blue,Tablet,Oral,No Effect,,,51.70800714285714,-3.6944071428571426
W065318,28 May 2025,CF10,Xanax,galenika ksalol aplrazolam,Blue,Tablet,Not Stated,Not Stated,Alprazolam,,51.48,-3.18
W065316,28 May 2025,CH54,Xanax,Viatris ugy alprazolam,White,Tablet,Not Stated,Not Stated,Alprazolam,,53.19930000000001,-3.03614
W065259,28 May 2025,L3,Diazepam,Martin dow valium,Blue,Tablet,Not Stated,Not Stated,Diazepam,,53.4106,-2.9779
W062377,28 May 2025,EH7,Diazepam (valium) ,Not Stated,Blue,Tablet,Oral,"Increased Confidence, Relaxed","Etizolam, Paracetamol",,55.9521,-3.1965
000235561,28 May 2025,England,Xanax,Alprazolam,White,Tablet,Oral,Not Stated,Alprazolam,,,
000235559,28 May 2025,NP12,Diazepam,Diazepam,Blue,,Oral,Not Stated,Bromazolam,,51.6678,-3.2075
000235560,28 May 2025,NP12,benzodiazepine,Not Stated,Blue,Tablet,Oral,Relaxed,Clonazepam,,51.6678,-3.2075
W065337,28 May 2025,TR10,Alprazolam,rlam-batch 210554,White,Tablet,Not Stated,Not Stated,Alprazolam,,50.16754,-5.11564
W065335,28 May 2025,TR10,Xanax /alprazolam,Xanax,White,Tablet,Not Stated,Not Stated,Caffeine,Clobromazolam,50.16754,-5.11564
W065308,28 May 2025,TR10,Xanax /alprazolam,Xanax red devil,Red,Tablet,Not Stated,Not Stated,"Caffeine, Clobromazolam",,50.16754,-5.11564
W065982,28 May 2025,DA15,Zolpidem,Belbien hemofarm,White,Tablet,Oral,Relaxed,Ethylbromazolam,,51.4412,0.0983
W065369,28 May 2025,YO11,Temazepam,Not Stated,White,Tablet,Oral,Not Stated,Etizolam,,54.23711428571429,-0.3853571428571428
000234711,28 May 2025,CF47,Diazepam,Not Stated,White,Tablet,Not Stated,Not Stated,No Active Component Identified,,51.7479,-3.3778
W065192,28 May 2025,KY5,Diazepam,Not Stated,White,Tablet,"Oral, Smoked",Not Stated,Clozapine,,56.1493125,-3.285875
W065186,28 May 2025,N19,Clonazepam,Galenika Rivtril Klonazepam 2mg,White,Tablet,Not Stated,Not Stated,"Paracetamol, Bromazolam",,51.5649,-0.1351
W065297,28 May 2025,MK47,Alprazolam,Alprazolam ksalol,White,Tablet,Not Stated,Not Stated,Bromazolam,,52.0045,-0.7823
W065217,28 May 2025,KT13,Diazepam,Bensedin,White,Tablet,Oral,"Irregular Heartbeat, No Effect",Paracetamol,Bromazolam,51.3722,-0.453
W065294,28 May 2025,G206,Diazepam,Valium Diazepam 10mg,Blue,Tablet,Not Stated,Not Stated,Diazepam,,55.8906,-4.2904
W065282,28 May 2025,PO13,Valium,Martin dow - excl ph,Blue,Tablet,Oral,Relaxed,Diazepam,,50.8144,-1.1886666666666663
W065191,22 May 2025,YO12,Valium,Not Stated,Yellow,Tablet,Oral,"Increased Energy, Increased Confidence, Enhanced Senses, Increased Stamina, Relaxed",Diazepam,,54.231975,-0.4602125
000234057,22 May 2025,NP20,Diazepam,Not Stated,Blue,Tablet,Not Stated,Not Stated,Ethylbromazolam,,51.5877,-2.9984
W065176,22 May 2025,BS6,Lorazepam,Lorazepam,White,Tablet,Not Stated,Not Stated,Lorazepam,,51.465599999999995,-2.599066666666667
W065189,22 May 2025,CW9,Xanax,Xanax xr,White,Tablet,Not Stated,Not Stated,Ethylbromazolam,,53.264406666666666,-2.5003200000000003
W065089,22 May 2025,TD7,Diazepam,Diazepam (martin Dow),Blue,Tablet,Oral,Relaxed,Diazepam,,55.531996551724134,-2.8854172413793107
W065157,22 May 2025,,Xanax,Alko-1 ,White,Tablet,Oral,Not Stated,Bromazolam,,0.0,0.0
W065140,22 May 2025,SA1,Alprazolam (xanax),Alprazolam,Blue,Tablet,Oral,"Relaxed, Memory Loss, Confusion, Agitation, Depression",Alprazolam,,51.633979999999994,-3.94848
W065139,22 May 2025,SA1,Diazepam,Diazepam,White,Tablet,Oral,"Relaxed, Memory Loss, Confusion, Agitation, Depression",Bromazolam,,51.633979999999994,-3.94848
W065199,22 May 2025,EH1,Etizolam,Etizolam pharma grade,White,Tablet,Not Stated,Not Stated,Etizolam,,55.9521,-3.1965
W065058,22 May 2025,Unknown,Nitrazepam,PVL Nitrrazepam 5mg,White,Tablet,Oral,Not Stated,Nitrazepam,,,
W065141,22 May 2025,YO12,Diazepam 5mg,Diazepam 5mg,Yellow,Tablet,Oral,Not Stated,Diazepam,,54.231975,-0.4602125
W065152,22 May 2025,BT69,Xanax,Not Stated,White,Tablet,Not Stated,Not Stated,Etizolam,,54.425,-6.95
W065137,22 May 2025,CW9,Ppizer Xanac 0.5mg,Xanax,White,Tablet,Not Stated,Not Stated,Alprazolam,,53.264406666666666,-2.5003200000000003
W065123,22 May 2025,RG12,Valium,Martin dow,Blue,Tablet,Not Stated,Not Stated,Diazepam,,51.4007,-0.7635
W065124,22 May 2025,RG12,Valium,Martin dow,Blue,Tablet,Not Stated,Not Stated,Diazepam,,51.4007,-0.7635
W065122,22 May 2025,RG12,Valium,Martin dow,Blue,Tablet,Not Stated,Not Stated,Diazepam,,51.4007,-0.7635
W065085,22 May 2025,E3,Xanax,Ksalol galenika mg alprazolam,White,Tablet,Not Stated,Not Stated,Alprazolam,,51.527657142857144,-0.0265714285714285
W065087,22 May 2025,E3,Xanax,Xanax ,White,Tablet,Not Stated,Not Stated,"Caffeine, Ethylbromazolam",,51.527657142857144,-0.0265714285714285
W065088,22 May 2025,E3,valium,bensedin Galenika Diazepam 10mg,White,Tablet,Not Stated,Not Stated,Diazepam,,51.527657142857144,-0.0265714285714285
W065064,22 May 2025,CF45,Valium,valium,Blue,Tablet,Oral,Relaxed,Diazepam,,51.66452,-3.3537
W065062,22 May 2025,CF45,valium,Valium,Blue,Tablet,Oral,Not Stated,Ethylbromazolam,,51.66452,-3.3537
W065050,22 May 2025,WV6,Diazepam 5mg,Diazepam 5mg accord ,Yellow,Tablet,Not Stated,Not Stated,Diazepam,,52.59424545454545,-2.2206454545454544
000234085,22 May 2025,NP20,benzo,Not Stated,Blue,Tablet,Not Stated,Not Stated,Ethylbromazolam,,51.5877,-2.9984
W065003,22 May 2025,CF11,Clonazepam,Clonazepam,White,Tablet,Oral,Not Stated,Clonazepam,,51.48,-3.18
W064852,22 May 2025,HP6,Lorazepam Ativan,Lorazepam Ativan,White,Tablet,Not Stated,Not Stated,Lorazepam,,51.6821,-0.60265
W064854,22 May 2025,HP6,Xanax / alprazolam,Alprazolam tablet 1p 1mg Rlam-1,White,Tablet,Oral,Not Stated,No Active Component Identified,,51.6821,-0.60265
W065100,22 May 2025,AB42,Diazepam,Diazepam,White,Tablet,Oral,Relaxed,Clozapine,,57.48231142857143,-1.924825714285714
W065065,22 May 2025,AB42,Diazepam,Not Stated,White,Tablet,Oral,Relaxed,Clozapine,,57.48231142857143,-1.924825714285714
000234087,22 May 2025,NP20,benzo,Not Stated,Blue,Tablet,Not Stated,Not Stated,Diazepam,,51.5877,-2.9984
W065090,22 May 2025,SW22,Diazepam 5mg tablet,Accord diazepam 5mg,Yellow,Tablet,Not Stated,Not Stated,Diazepam,,51.4548,-0.1158
W065029,16 May 2025,GU4,Eitzolam,Neuozol-1,White,Tablet,Not Stated,Not Stated,Etizolam,,51.22978571428571,-0.5223571428571429
W065028,16 May 2025,GU4,Alprazolam,R-lam-1 B.no 210554,White,Tablet,Not Stated,Not Stated,No Active Component Identified,,51.22978571428571,-0.5223571428571429
W065053,16 May 2025,TN25,Diazepam,Diazepam,Blue,Tablet,Not Stated,Not Stated,Ethylbromazolam,,51.14642608695653,0.9393608695652174
000233059,16 May 2025,FK1,Diazepam,Not Stated,White,Tablet,Oral,"Relaxed, Memory Loss, Confusion, Loss of consciousness",Phenazepam,,55.96849090909091,-3.796481818181818
W064998,16 May 2025,SW1,Alprazolam 1mg,Alprazolam 1mg,White,Tablet,Oral,"Relaxed, Loss of consciousness",Alprazolam,,51.495583333333336,-0.1417916666666666
000236906,16 May 2025,CF31,Nitrazepam,Nitrabit 10,White,Tablet,Not Stated,Not Stated,Nitrazepam,,51.507666666666665,-3.577733333333333
000236907,16 May 2025,CF31,Clonazepam,Klozaps-2mg,White,Tablet,Not Stated,Not Stated,Clonazepam,,51.507666666666665,-3.577733333333333
000236904,16 May 2025,CF31,Nitrazepam ,Elza-10 Nitrazepam 10mg,Blue,Tablet,Not Stated,Not Stated,Nitrazepam,,51.507666666666665,-3.577733333333333
000236905,16 May 2025,CF31,Clonazepam,Galenika rivotril 2mg,White,Tablet,Not Stated,Not Stated,Bromazolam,,51.507666666666665,-3.577733333333333
W064991,16 May 2025,TQ2,Diazepam,Not Stated,White,Tablet,Oral,Not Stated,Diazepam,,50.4762,-3.546
W064990,16 May 2025,SM39,Xanax,Xanax Alprazolam,White,Tablet,Oral,"Nausea, Vomiting, Confusion, Panic Attack, Agitation",Bromazolam,,51.3579,-0.2162
W064985,16 May 2025,NW10,Diazepam,Not Stated,White,Tablet,Oral,Not Stated,Diazepam,,51.53758571428572,-0.2431214285714285
W064897,16 May 2025,CA28,Diazepam,Galeinika bensedin 10mg Diazepam,White,Tablet,Not Stated,Not Stated,Ethylbromazolam,,54.55781666666667,-3.5837
W064992,16 May 2025,CW9,Diazepam,Valium (diazepam),Blue,Tablet,Not Stated,Not Stated,Ethylbromazolam,,53.264406666666666,-2.5003200000000003
W064994,16 May 2025,CW9,Diazepam,Diazepam,White,Tablet,Not Stated,Not Stated,Ethylbromazolam,,53.264406666666666,-2.5003200000000003
W064997,16 May 2025,CW9,Xanax,Klonazepam,White,Tablet,Not Stated,Not Stated,Ethylbromazolam,,53.264406666666666,-2.5003200000000003
000232038,16 May 2025,CF35,Not Stated,Not Stated,"Orange, Green",,Not Stated,Not Stated,Bromazolam,,51.518684615384615,-3.5275461538461537
W064951,16 May 2025,DN12,Diazepam,Martin Dow,Blue,Tablet,Not Stated,Not Stated,Diazepam,,53.4851,-1.2453
W064952,16 May 2025,DN12,Diazepam,Martin Dow ,Blue,Tablet,Not Stated,Not Stated,Diazepam,,53.4851,-1.2453
W064767,13 May 2025,LL30,Diazepam,valium,White,Tablet,Oral,"Increased Confidence, Relaxed, Panic Attack",Diazepam,,53.325,-3.8315
100004487,13 May 2025,FK29,Valum,Diazepam,White,Tablet,Oral,"Increased Confidence, Increased Libido, Increased Strength, Relaxed",Phenazepam,,56.01717272727273,-3.755472727272727
100004486,13 May 2025,NE13,Lorazepam,Lorazepam,Yellow,Tablet,Oral,"Euphoria, Increased Confidence, Relaxed",Lorazepam,,55.0523,-1.6473666666666666
W064822,13 May 2025,E5,Diazepam,Diazepam 10mg,White,Tablet,Oral,Relaxed,Diazepam,,51.55991666666667,-0.0545166666666666
W064821,13 May 2025,E5,Alprazolam,Alprazolam 1mg,White,Tablet,Oral,Relaxed,Alprazolam,,51.55991666666667,-0.0545166666666666
W064775,13 May 2025,TF9,Valium/Diazepam,10m Diazepam,Blue,Tablet,Not Stated,Not Stated,Diazepam,,52.85675853658537,-2.425558536585366
000234963,13 May 2025,CF43,valium 10mg,MSJ Valium 10mg,Blue,,Oral,"Relaxed, No Effect",Ethylbromazolam,,51.66792,-3.4671
000234961,13 May 2025,CF42,Valium,valium 1 MSJ 10mg,Blue,Tablet,Oral,"No Effect, Relaxed",Ethylbromazolam,,51.66798333333333,-3.5247833333333336
000234975,13 May 2025,CF40,Diazepam,MSJ,Blue,Tablet,Oral,Relaxed,Ethylbromazolam,,51.627316666666665,-3.461883333333333
W064800,13 May 2025,SK13,Clonazepam 2mg,Clonazepam Alissa 2mg,White,Tablet,Not Stated,Not Stated,Clonazepam,,53.4433,-1.949
W064801,13 May 2025,SK13,Clonazepam,Clonazepam Alissa 2mg,White,Tablet,Not Stated,Not Stated,Clonazepam,,53.4433,-1.949
W064804,13 May 2025,M50,Diazepam,Diazepam,White,Tablet,Oral,"Euphoria, Empathy, Relaxed",Diazepam,,53.4767,-2.2932
W064782,13 May 2025,E2,Xanax 1mg,Ksalol Gelanika alprazolam 1mg,White,Tablet,Not Stated,Not Stated,Alprazolam,,51.5386,-0.055525
W064781,13 May 2025,E2,valium,galenika Diazepam 10mg,White,Tablet,Not Stated,Not Stated,Diazepam,,51.5386,-0.055525
W064684,13 May 2025,TN34,Clonazepam,Clonazepam,Blue,Tablet,Oral,"Empathy, Relaxed",Clonazepam,,50.8552,0.5729
W064825,13 May 2025,LS21,Alprazolam,Alprazolam (alko-1),White,Tablet,Not Stated,Not Stated,Bromazolam,,53.9217,-1.6693555555555557
W064754,13 May 2025,EH65,10mg Diazepam,10mg Martin dow,Blue,Tablet,Not Stated,Not Stated,Diazepam,,55.9617,-3.1844
000232891,13 May 2025,CF83,valium,Not Stated,Blue,,Oral,"Relaxed, Nausea, Vomiting",Bromazolam,,51.59288333333333,-3.2333833333333337
W064790,13 May 2025,G12,Diazepam 10mg,Bensedin galenika 2b2,White,Tablet,Not Stated,Not Stated,Diazepam,,55.8804,-4.3007
W064789,13 May 2025,G12,Diazepam 10mg,bensedin Galenika 1b1,White,Tablet,Not Stated,Not Stated,Diazepam,,55.8804,-4.3007
W064757,13 May 2025,NW3,Clonazepam 2mg,Galenika Rivotril Klonozepam 2mg,White,Tablet,Not Stated,Not Stated,Bromazolam,,51.5462,-0.168075
W064759,13 May 2025,NE3,Diazepam 10mg,Martin dow diazepam 10mg,Blue,Tablet,Oral,No Effect,Diazepam,,55.003175,-1.6339
W064826,13 May 2025,LS21,Diazepam,Dizpam-10,White,Tablet,Not Stated,Not Stated,Diazepam,,53.9217,-1.6693555555555557
W064827,13 May 2025,LS21,Clonazepam,Rnaze-2,White,,Not Stated,Not Stated,Clonazepam,,53.9217,-1.6693555555555557
W064751,13 May 2025,EH65,10mg Diazepam,10mg Diz-pam neruo vision,White,Tablet,Not Stated,Not Stated,Diazepam,,55.9617,-3.1844
W064688,13 May 2025,DE55,Xanax Alprazolam,Xanax,White,Tablet,Oral,"Euphoria, Increased Confidence, Relaxed, Memory Loss, Confusion",Bromazolam,,53.11225263157895,-1.388221052631579
W064768,13 May 2025,PO19,Clonazepam,Not Stated,White,Tablet,Not Stated,Not Stated,Clonazepam,,50.8373,-0.77915
W064676,13 May 2025,TW14,2mg Etizolam,2mg Etizolam,Red,Tablet,Oral,"Euphoria, Increased Confidence, Relaxed","Caffeine, Rilmazafone",,51.4528,-0.4215
W064632,13 May 2025,SR4,prokarma Diazepam 5mg,prokarma Diazepam 5mg,White,Tablet,Not Stated,Not Stated,Diazepam,,54.9004,-1.4255
W064783,13 May 2025,CB23,valium,valium,Blue,Tablet,Not Stated,Not Stated,Diazepam,,52.21715,-0.0101058823529411
W064755,13 May 2025,NE3,Diazepam,Accord Diazepam 10mg,White,Tablet,Not Stated,No Effect,Diazepam,,55.003175,-1.6339
W064682,13 May 2025,DD5,Diazepam 10mg,Diazepam 10mg,White,Tablet,Oral,"Increased Confidence, Relaxed, Agitation",Diazepam,,56.48408823529412,-2.8548705882352943
W064520,13 May 2025,RG30,Diazepam,Valium,Blue,Tablet,Oral,"Paranoia, Confusion, Panic Attack, Agitation",Diazepam,,51.4515,-1.0141
W064530,13 May 2025,EX39,Diazepam 10mg teva,Diazepam 10mg Teva,Blue,Tablet,Oral,"Memory Loss, Loss of consciousness",Diazepam,,50.99405869565218,-4.261958695652174
W064598,13 May 2025,E2,Xanax,Xanax,White,Tablet,Not Stated,Not Stated,"Caffeine, Ethylbromazolam",,51.5386,-0.055525
W064931,16 May 2025,BN14,Xanax,Xanax,White,Tablet,Not Stated,Not Stated,Alprazolam,,50.841075,-0.386625
W064937,16 May 2025,CW9,Bensedin Valium,Valium,White,Tablet,Oral,Relaxed,Diazepam,,53.264406666666666,-2.5003200000000003
W064939,16 May 2025,HR6,Alprazolam 1mg,Tehran Daroc,Blue,Tablet,Oral,"Increased Confidence, Relaxed",Alprazolam,,52.215596363636365,-2.6785654545454545
W064392,16 May 2025,HR6,Alprazolam 1mg,Rlam-1 Alprazolam 1mg,White,Tablet,Oral,"Increased Confidence, Relaxed, Irregular Heartbeat",Alprazolam,,52.215596363636365,-2.6785654545454545
000234084,16 May 2025,NP20,Benzo,Not Stated,White,Tablet,Oral,"Euphoria, Increased Confidence, Relaxed, Chest Pains, Irregular Heartbeat",Diazepam,,51.5877,-2.9984
W064868,16 May 2025,G82,Street Valium,Not Stated,Blue,Tablet,Oral,Relaxed,"Etizolam, Phenacetin",,55.954800000000006,-4.5815222222222225
W064867,13 May 2025,CH14,Diazepam,Diazepam 10mg,Blue,Tablet,Not Stated,Not Stated,Ethylbromazolam,,53.2239,-2.9434428571428577
W064891,13 May 2025,SW2,valium,Not Stated,Blue,Tablet,Not Stated,Not Stated,Diazepam,,51.4548,-0.1158
W064901,13 May 2025,E14,Xanax 0.5mg,Xanax viatris 0.5mg,"White, Pink",Tablet,Not Stated,Not Stated,Alprazolam,,51.50563529411765,-0.0187647058823529
W064906,13 May 2025,AL4,Diazepam,valium/ diazepam Martin dow,Blue,Tablet,Not Stated,Not Stated,Diazepam,,51.776783333333334,-0.2842833333333333
W064843,13 May 2025,FK11,bezodiazapine 10mg,Not Stated,White,Tablet,Oral,Relaxed,"Etizolam, Paracetamol",,56.1514,-3.8547
W064837,13 May 2025,PE3,Diazepam,Diazepam,White,Tablet,Not Stated,Relaxed,Diazepam,,52.567,-0.283
W064829,13 May 2025,PE7,Alprazolam,Neurovison Alprazolam Alpz-1,White,Tablet,Oral,"Euphoria, Relaxed","Quetiapine, Alprazolam",,52.51083125,-0.27019375
W064823,13 May 2025,CB4,Diazepam,Bensedin 10mg,White,Tablet,Oral,"Relaxed, Breathlesness, Irregular Heartbeat",Ethylbromazolam,,52.22380625,0.131525
W064866,13 May 2025,CF24,Diazepam,Diazepam tablet 1P 10mg Dipam-10,White,Tablet,Oral,"Euphoria, Increased Energy, Relaxed, Memory Loss, Panic Attack",Diazepam,,51.48,-3.18
W064894,13 May 2025,KT3,Diazepam,Bensedin Galenika,White,Tablet,Oral,Relaxed,Diazepam,,51.3992,-0.2556
W064865,13 May 2025,CF24,Clonazepam,Clonazepam Rnaze-2,White,Tablet,Oral,"Euphoria, Increased Energy, Relaxed, Memory Loss, Confusion",Clonazepam,,51.48,-3.18
W064620,13 May 2025,IP31,Zolpidem,Zolpidem 10mg,White,Tablet,Oral,Not Stated,Ethylbromazolam,,52.2995448275862,0.8373172413793103
W064883,13 May 2025,NW1,Diazepam,Bensedin 10mg,White,,Not Stated,Not Stated,Diazepam,,51.52988181818182,-0.1471818181818182
100004485,13 May 2025,NW1,valium ,Valium 10mg Martin dow,Blue,,Not Stated,Not Stated,Diazepam,,51.52988181818182,-0.1471818181818182
W064881,13 May 2025,NW1,Nitrazepam,Nitrazepam,White,Tablet,Not Stated,Not Stated,Nitrazepam,,51.52988181818182,-0.1471818181818182
W064846,13 May 2025,PE7,Diazepam,Digital vision Dizpam-10,White,Tablet,Oral,"Euphoria, Relaxed",Diazepam,,52.51083125,-0.27019375
W064685,13 May 2025,OX14,heroin,Not Stated,Brown,Powder,Smoked,"Relaxed, Memory Loss, Confusion, Loss of consciousness, Agitation","Paracetamol, Caffeine, Noscapine, Cocaine, Heroin, 6-MAM","Ethylbromazolam, 6-Acetylcodeine, Papaverine, Phenacetin",51.648575,-1.2559833333333332
W064412,13 May 2025,OX27,Diazepam,Diazepam,Yellow,Tablet,Oral,Relaxed,Diazepam,,51.9,-1.1536
W064859,13 May 2025,BA2,Accord 10mg Diazepam,Accord 10mg Diazepam,Blue,Tablet,Not Stated,Not Stated,Diazepam,,51.35473913043478,-2.3910565217391304
W064858,13 May 2025,BA2,Accord 10mg Diazepam,Accord 10mg Diazepam,Blue,Tablet,Not Stated,Not Stated,Diazepam,,51.35473913043478,-2.3910565217391304
W064885,13 May 2025,NW1,Diazepam,bensedin 10mg,White,,Not Stated,Not Stated,Diazepam,,51.52988181818182,-0.1471818181818182
W064884,13 May 2025,NW1,Diazepam ,bensedin 10mg,,,Not Stated,Not Stated,Diazepam,,51.52988181818182,-0.1471818181818182
000233912,13 May 2025,CF83,Unknown,Not Stated,,,Oral,"Relaxed, Loss of consciousness, Depression","Paracetamol, Bromazolam",,51.59288333333333,-3.2333833333333337
W064817,13 May 2025,CF44,Diazepam,valium,Blue,Tablet,Oral,"Increased Energy, Increased Confidence, Relaxed, Panic Attack",Diazepam,,51.7327125,-3.48293125
W064893,13 May 2025,LA16,Diazepam 5mg,Diazepam 5mg Almus/Accord,Yellow,Tablet,Not Stated,Not Stated,Diazepam,,54.1859,-3.20765
W064341,13 May 2025,BS28,Martin dow Valium (diazepam),valium 10mg (martin dow),Blue,Tablet,Oral,"Euphoria, Relaxed",Diazepam,,51.22654285714286,-2.811271428571428
W064872,13 May 2025,WV6,Diazepam 10mg Bensedin,Galenika Bensedin Diazepam 10mg ,White,Tablet,Not Stated,Not Stated,Diazepam,,52.59424545454545,-2.2206454545454544
W064814,13 May 2025,PL5,Valium (diazepam),MSJ,Blue,Tablet,Oral,"Increased Confidence, Visual Hallucinations, Relaxed, Irregular Heartbeat, Memory Loss, Lethargy",Bromazolam,,50.4143,-4.16135
W064855,13 May 2025,SK13,Diazepam,Accord Diazepam 10mg,Blue,Tablet,Not Stated,Not Stated,Diazepam,,53.4433,-1.949
W064638,13 May 2025,E8,heroin,heroin,Grey,Powder,Not Stated,Not Stated,"Diazepam, Heroin, Noscapine, 6-MAM, 6-Acetylcodeine, Paracetamol","Caffeine, Papaverine",51.548,-0.0629
W064652,13 May 2025,G225,Spanish Xanax,Viatris ramkimazin,White,Tablet,Not Stated,Not Stated,Alprazolam,,55.8651,-4.2576
W064637,13 May 2025,CM21,Lorazepam,Lorazepam,Yellow,Tablet,Oral,Not Stated,"Lorazepam, Metoprolol, Propranolol, Citalopram",,51.81646666666666,0.1396
W064364,24 Apr 2025,LS14,Diazepam,Accord,White,Tablet,Not Stated,Not Stated,"Paracetamol, Bromazolam",,53.8486,-1.4444333333333332
W064623,13 May 2025,EH1,Diazepam 10mg,Not Stated,Blue,Tablet,Not Stated,Not Stated,Bromazolam,,55.9521,-3.1965
000233868,13 May 2025,CF10,valium,Not Stated,Blue,Tablet,Oral,Relaxed,Ethylbromazolam,,51.48,-3.18
W064626,13 May 2025,DN1,Xanax,Gh-ksalol,Blue,Tablet,Not Stated,Not Stated,Alprazolam,,53.5228,-1.1312
W064627,13 May 2025,PN11,Diazepam,GH- Accord,White,Tablet,Not Stated,Not Stated,Diazepam,,,
W064561,13 May 2025,IP8,Lorazepam,Lorazepam,Yellow,Tablet,Not Stated,Not Stated,"Lorazepam, Metoprolol, Citalopram, Propranolol",,52.072692307692314,1.0596
W064544,13 May 2025,BT36,Xanax,MP Alpz,White,Tablet,Not Stated,Not Stated,"Alprazolam, Quetiapine",Tramadol,54.675533333333334,-5.9483
100004484,13 May 2025,BH14,Diazepam,Diazepam ,White,Tablet,Not Stated,Not Stated,Diazepam,,50.7299,-1.9449
W064616,13 May 2025,E17,Diazepam,Diazepam,Blue,Tablet,Not Stated,Not Stated,Rilmazafone,,51.58758,-0.02048
W064629,13 May 2025,CF32,Diazepam 10mg,Diazepam galenika ,White,Tablet,Oral,"Memory Loss, Confusion, Agitation, Insomnia, Suicidal Ideation",Diazepam,,51.536704166666674,-3.5931333333333337
W064617,13 May 2025,NE6,Clonazepam,Clonazepam,White,Tablet,Not Stated,Not Stated,"Paracetamol, Bromazolam",,54.9775,-1.5656
W064611,13 May 2025,YO11,Clonazepam,Rivotril Galenika 2mg,White,Tablet,Not Stated,Not Stated,Clonazepam,,54.23711428571429,-0.3853571428571428
W064526,13 May 2025,BH23,Zopiclone,Zopiclone,White,Tablet,Not Stated,Not Stated,Bromazolam,,50.755406666666666,-1.7577666666666665
W064571,13 May 2025,EX23,Lorazepam 3mg,Lorus 3mg,White,Tablet,Oral,"Increased Confidence, Relaxed",Lorazepam,,50.81068285714286,-4.493794285714286
W064572,13 May 2025,B33,Etizolam,Neurozol-1,White,Tablet,Not Stated,Not Stated,Etizolam,,52.4804,-1.7883
W064573,13 May 2025,B33,Alprazolam,neurovision alpz-1,White,Tablet,Not Stated,Not Stated,Alprazolam,,52.4804,-1.7883
W064604,13 May 2025,B90,Diazepam,Diazepam,Yellow,Tablet,Not Stated,Not Stated,Diazepam,,52.4107,-1.8195
W065607,13 May 2025,B90,Diazepam,Diazepam,Yellow,Tablet,Not Stated,Not Stated,Diazepam,,52.4107,-1.8195
W064440,13 May 2025,PL75,Diazepam,Not Stated,"Green, Blue",Tablet,Oral,No Effect,Bromazolam,,50.417024999999995,-4.0512875
W064613,13 May 2025,NR21,Valium,Diazepam,White,Tablet,Oral,"Relaxed, Chest Pains, Irregular Heartbeat, Memory Loss, Confusion, Loss of consciousness",Diazepam,,52.83983333333333,0.8568066666666667
W064614,03 Apr 2025,NR21,Xanax,Alprazolam,Colourless,Tablet,Oral,"Increased Confidence, Relaxed, Chest Pains, Irregular Heartbeat, Nausea, Vomiting, Confusion",Alprazolam,,52.83983333333333,0.8568066666666667
W064411,13 May 2025,EH54,Diazepam,Diazepam,White,Powder,Oral,"Chest Pains, Irregular Heartbeat, Loss of consciousness, Agitation, Violence/Aggression",Paracetamol,,55.9029,-3.5226
W064605,13 May 2025,B90,Diazepam,Diazepam,Yellow,Tablet,Not Stated,Not Stated,Diazepam,,52.4107,-1.8195
000234071,13 May 2025,NP20,Unknown,Not Stated,,,Not Stated,Not Stated,"Cocaine, 6-MAM, Bromazolam, Noscapine, Morphine","Caffeine, Paracetamol, Papaverine",51.5877,-2.9984
W064596,13 May 2025,RG25,Diazepam,Diazepam,White,Tablet,Not Stated,Not Stated,Bromazolam,,51.217091304347825,-1.112808695652174
W063132,13 May 2025,NE29,Diazepam 10mg,Bensedin Galenka Diazepam 10mg ,White,Tablet,Not Stated,Not Stated,Diazepam,,55.0165,-1.4493
W063323,13 May 2025,CH14,Alprazolam,Cinfa Alprazolam,White,Tablet,Not Stated,Not Stated,Alprazolam,,53.2239,-2.9434428571428577
W064545,13 May 2025,BT36,Clonazepam,MP Rnaze,White,Tablet,Not Stated,Not Stated,Clonazepam,,54.675533333333334,-5.9483
W064402,13 May 2025,PO16,Clonazepam,Clonazepam Avden 2mg Tablet Teva Uk ltd,White,Tablet,Oral,"Relaxed, Memory Loss, Tiredness",Clonazepam,,50.847775,-1.155475
000233952,13 May 2025,CF83,valium,valium,Blue,Tablet,Oral,"Relaxed, Chest Pains, Irregular Heartbeat, Vomiting, Paranoia, Confusion",Bromazolam,,51.59288333333333,-3.2333833333333337
W064552,13 May 2025,CB2,Xanax,Xanax,White,Tablet,Oral,Relaxed,Alprazolam,,52.18965000000001,0.1240214285714285
W064577,13 May 2025,RG42,Lorazepam,Lorazepam,Blue,Tablet,Not Stated,Not Stated,Lorazepam,,51.436885714285715,-0.7580857142857143
W064547,13 May 2025,BT36,Diazepam 5mg,Go2guys diazepam tubs,Yellow,Tablet,Not Stated,Not Stated,Diazepam,,54.675533333333334,-5.9483
W064546,13 May 2025,BT36,Xanax,SP Rlam,White,Liquid,Not Stated,Not Stated,Alprazolam,,54.675533333333334,-5.9483
000233949,13 May 2025,CF83,Valium,Diazepam,Blue,Tablet,Oral,"Relaxed, Chest Pains, Irregular Heartbeat, Nausea, Vomiting",Bromazolam,,51.59288333333333,-3.2333833333333337
000233962,13 May 2025,CF83,Diazepam,Diazepam,Blue,Tablet,Oral,"Relaxed, Chest Pains, Irregular Heartbeat, Nausea, Panic Attack, Agitation",Bromazolam,,51.59288333333333,-3.2333833333333337
W064484,13 May 2025,BS58,Diazepam,Diazepam,Yellow,Tablet,Not Stated,Not Stated,Diazepam,,51.462,-2.5519
000233953,13 May 2025,CF10,Valium,Diazepam,Blue,Tablet,Oral,"Relaxed, Chest Pains, Irregular Heartbeat, Vomiting",Bromazolam,,51.48,-3.18
000233951,13 May 2025,CF83,Valium,Not Stated,Blue,Tablet,Oral,"Relaxed, Breathlesness, Chest Pains, Irregular Heartbeat, Nausea, Vomiting, Paranoia",Bromazolam,,51.59288333333333,-3.2333833333333337
000233961,13 May 2025,CF83,Valium,Diazepam valium,Blue,Tablet,Oral,"Relaxed, Chest Pains, Irregular Heartbeat, Confusion, Panic Attack",Bromazolam,,51.59288333333333,-3.2333833333333337
W064579,13 May 2025,CF62,DIAZEPAM,DIAZEPAM PRODES,White,Tablet,Oral,"Empathy, Relaxed",Bromazolam,,51.4027,-3.37145
W064543,13 May 2025,SY23,xanax,xanax,White,Tablet,Oral,"Memory Loss, Memory Loss, Confusion, Confusion, Relaxed, Relaxed",Alprazolam,,52.34458541666667,-3.9885
000235898,13 May 2025,CF10,VALIUM,Not Stated,Blue,Tablet,Not Stated,Not Stated,Diazepam,,51.48,-3.18
W064400,13 May 2025,CT5,DIAZEPAM 10MG ,VALIUM (MARTIN DOW) DIAZEPAM 10MG,Blue,Tablet,Oral,Relaxed,Diazepam,,51.3565,1.0400142857142858
000236702,13 May 2025,SA1,VALIUM,Not Stated,Blue,,Oral,Not Stated,Flualprazolam,,51.633979999999994,-3.94848
W064419,13 May 2025,GU15,ALPRAZOLAM,ALPRX,White,Tablet,Oral,"Euphoria, Increased Confidence, Relaxed",Alprazolam,,51.337,-0.7426
W064263,13 May 2025,GU47,ETIZOLAM,Not Stated,Red,Tablet,Not Stated,Not Stated,Ethylbromazolam,,51.3468,-0.7866
W064262,13 May 2025,GU47,ALPRAZOLAM / XANAX,XANAX 2,Red,Tablet,Not Stated,Not Stated,"Caffeine, Ethylbromazolam",,51.3468,-0.7866
W064345,13 May 2025,S2,DIAZEPAM,DIAZEPAM BENSEDIN 10MG,White,Tablet,Oral,"Euphoria, Increased Energy, Visual Hallucinations, Relaxed, Paranoia, Loss of consciousness, Suicidal Ideation",Diazepam,,53.383,-1.4659
W064494,13 May 2025,PO21,LORAZEPAM,LORUS 3MG LORAZEPAM,White,Tablet,Not Stated,Not Stated,Lorazepam,,50.776525,-0.712225
000235185,13 May 2025,CF11,CLONAZEPAM,CLONAZEPAM AUDEN 2MG,White,Tablet,Not Stated,Not Stated,Clonazepam,,51.48,-3.18
000042766,13 May 2025,CF11,Clonazepam,Clonazepam Auden 2mg,White,Tablet,Oral,"Euphoria, Increased Confidence, Relaxed, Memory Loss",Clonazepam,,51.48,-3.18
W064442,08 May 2025,WA71,temazepam,Not Stated,"Yellow, Brown",,Oral,Not Stated,Etizolam,,53.324125,-2.7118
W064452,08 May 2025,W5,Alprazolam 2mg,Xanax 2mg,White,Tablet,Not Stated,Not Stated,"Caffeine, Bromazolam",,51.516333333333336,-0.2851888888888889
000233948,08 May 2025,CF83,Valium,Not Stated,White,Tablet,Oral,"Relaxed, Agitation","Paracetamol, Bromazolam",,51.59288333333333,-3.2333833333333337
W064450,08 May 2025,W5,Clonazepam 2mg,Clonazepam 2mg,White,Tablet,Not Stated,Not Stated,Clonazepam,,51.516333333333336,-0.2851888888888889
000234293,08 May 2025,NP4,Unknown,Not Stated,White,Tablet,Oral,"Euphoria, Increased Confidence, Relaxed, Nausea, Vomiting, Paranoia, Memory Loss, Panic Attack, Agitation",Diazepam,,51.718515789473685,-3.030521052631579
W064509,08 May 2025,TQ12,Valium ,Valium (Diazepam) 10mg,Blue,Tablet,Not Stated,Not Stated,Diazepam,,50.526051851851854,-3.6118259259259258
W064473,08 May 2025,EX24,Diazepam,valium,Blue,Tablet,Not Stated,Not Stated,Diazepam,,50.7404,-3.0892
W064410,08 May 2025,EN48,Diazepam,Diazepam,Blue,Tablet,Oral,Not Stated,Diazepam,,51.650580000000005,-0.158
000233487,08 May 2025,LL55,Diazepam 2mg,Not Stated,White,Tablet,Not Stated,Not Stated,"Paracetamol, Bromazolam",,53.12915357142857,-4.195053571428572
000023486,08 May 2025,LL55,Diazepam 10mg,MSJ,Blue,Tablet,Not Stated,Not Stated,Bromazolam,,53.12915357142857,-4.195053571428572
000233485,08 May 2025,LL55,Diazepam 10mg,Diazepam ,White,Tablet,Not Stated,Not Stated,No Active Component Identified,,53.12915357142857,-4.195053571428572
W054323,08 May 2025,NW26,Diazepam,Diazepam,Blue,Tablet,Not Stated,Not Stated,Diazepam,,51.5308,-0.1354
W064501,08 May 2025,TR14,Clonazepam,Not Stated,White,,Not Stated,Not Stated,Clonazepam,,50.19814,-5.30309
W064425,08 May 2025,RG1,Alprazolam,Ksalol Alprazolam,"Blue, Grey",Tablet,Not Stated,Not Stated,Alprazolam,,51.4563,-0.9711
W064422,08 May 2025,L26,Diazepam,Not Stated,Blue,Tablet,Oral,"Euphoria, Increased Confidence, Relaxed",Diazepam,,53.3596,-2.8315
