,date_received,postcode,intent,label,colour,form,consumption_method,effects,major,minor,latitude,longitude
W075485,08 Apr 2026,YO8,Zopiclone,Zopiclone,White,Tablet,Not Stated,Not Stated,Zopiclone,,53.77469393939394,-1.0269030303030302
W075547,08 Apr 2026,DY7,Tapentadol 200mg,Tapentadol 200 (tapaday- 200),White,Tablet,Oral,"No Effect, Nausea",Tapentadol,,52.479425,-2.243125
W075569,08 Apr 2026,SO51,MDMA,high times MDMA,Brown,Crystalline,Not Stated,Not Stated,MDMA,,51.01539047619048,-1.494095238095238
W075534,08 Apr 2026,SG2,ketamine,Not Stated,White,Granules,Snort / Sniff,"Euphoria, Increased Stamina, Relaxed, Nosebleeds, Confusion",Ketamine,,51.899049999999995,-0.14905
000238485,08 Apr 2026,CF10,Valium,Not Stated,Yellow,Tablet,Not Stated,Not Stated,Diazepam,,51.48,-3.18
W075502,08 Apr 2026,B37,"Alazipan, nitrozipan, pregablin",Not Stated,,Tablet,Oral,Not Stated,Nitrazepam,,52.4685,-1.7482
W075461,07 Apr 2026,AB24,Zopiclone,Zopiclone 10mg,White,Tablet,Oral,Relaxed,Zopiclone,,57.1437,-2.0981
W075520,07 Apr 2026,TF9,ketamine,Not Stated,"Colourless, White",Granules,Not Stated,Not Stated,Ketamine,,52.85675853658537,-2.425558536585366
W075519,07 Apr 2026,TF9,lsd,Not Stated,"White, Blue",Blotter paper,Not Stated,Not Stated,Lysergic acid diethylamide,,52.85675853658537,-2.425558536585366
W075521,07 Apr 2026,TF9,mdma,Not Stated,"Orange, Green",Tablet,Not Stated,Not Stated,MDMA,,52.85675853658537,-2.425558536585366
W075522,07 Apr 2026,TF9,2C-b,Not Stated,"Yellow, Black",Tablet,Not Stated,Not Stated,2C-B,,52.85675853658537,-2.425558536585366
W075532,07 Apr 2026,PH10,Unknown,Not Stated,White,Powder,Not Stated,Not Stated,Cocaine,,56.60021666666667,-3.4994361111111107
W075466,07 Apr 2026,L3,Pregabalin,Pregabalin,"White, Red",Capsule,Not Stated,Not Stated,Pregabalin,,53.4106,-2.9779
W075531,07 Apr 2026,SS9,Diazepam 10mg,Diazepam 10mg,Blue,Tablet,Not Stated,Not Stated,Diazepam,,51.54885,0.65005
W075209,07 Apr 2026,E8,Diazepam,Valium,,Tablet,Not Stated,"Relaxed, Chest Pains, Memory Loss",Diazepam,,51.548,-0.0629
W075465,07 Apr 2026,HA3,Amoxicillin,Rudipharm amoxillan,"Yellow, Red",Capsule,Not Stated,Not Stated,Amoxicillin,,51.59936666666667,-0.3307333333333333
W075483,07 Apr 2026,DE1,Unknown,Not Stated,Purple,Tablet,Not Stated,Not Stated,MDMA,,52.9228,-1.4766
W075478,07 Apr 2026,NG71,Cocaine,Cocaine ,White,Powder,Snort / Sniff,Not Stated,Cocaine,,52.9536,-1.1505
W075477,07 Apr 2026,NG71,DMT,DMT,"Yellow, Yellow",Powder,Smoked,Not Stated,DMT,,52.9536,-1.1505
W075474,07 Apr 2026,NG17,Cocaine,Cocaine,White,Powder,Not Stated,"Increased Energy, Increased Confidence, Increased Strength, Nosebleeds, Paranoia",Cocaine,Benzoylecgonine,53.128366666666665,-1.2676833333333335
W075473,07 Apr 2026,NG71,MDMA,MDMA,"Pink, Purple",,Not Stated,"Euphoria, Increased Energy, Increased Confidence, Empathy, Nausea",MDMA,,52.9536,-1.1505
W075476,07 Apr 2026,NG71,ketamine,ketamine,White,Powder,Snort / Sniff,Not Stated,Ketamine,,52.9536,-1.1505
W075481,07 Apr 2026,NG17,Speed,Speed,White,Powder,Not Stated,Not Stated,"Caffeine, Amphetamine",,53.128366666666665,-1.2676833333333335
W075480,07 Apr 2026,NG71,Speed,Speed,White,Powder,Not Stated,Not Stated,"Caffeine, Amphetamine",,52.9536,-1.1505
W075471,07 Apr 2026,NG71,MDMA,MDMA,"Pink, Red",,Oral,"Increased Energy, Enhanced Senses, Increased Strength, Increased Confidence, Vomiting, Memory Loss",MDMA,,52.9536,-1.1505
W075470,07 Apr 2026,NG71,2-CMC,2 CMC,"White, Yellow",Crystalline,"Oral, Snort / Sniff","Euphoria, Increased Energy, Visual Hallucinations, Increased Stamina","2-Chloromethcathinone, 2-Fluorodeschloroketamine",,52.9536,-1.1505
W075472,07 Apr 2026,NG11,MDMA,MDMA,"Colourless, Grey",Crystalline,Not Stated,Not Stated,MDMA,,52.87862,-1.19524
W075467,07 Apr 2026,L39,Diazepam,Diazepam,Blue,Tablet,Not Stated,Not Stated,Diazepam,,53.555600000000005,-2.9094100000000003
W075272,07 Apr 2026,RG31,Alprazolam xanax,Ksasol alprazolam,"White, Blue",Tablet,Oral,Relaxed,Alprazolam,,51.4513,-1.046266666666667
W075452,07 Apr 2026,G65,Diazepam,Nitrazepam,White,Tablet,Not Stated,Not Stated,Nitrazepam,,55.97357000000001,-4.05812
W075451,07 Apr 2026,G65,Tramadol ,Tramadol hydrochloride 100mg,White,Tablet,Oral,"Relaxed, Loss of consciousness, Agitation, Insomnia",Tramadol,,55.97357000000001,-4.05812
W075385,07 Apr 2026,BN24,Diazepam,martin dows,Blue,Tablet,Oral,"Relaxed, Irregular Heartbeat, Nausea",Diazepam,,50.81635,0.3384666666666667
W075511,07 Apr 2026,M16,Clonazepam,Pase Clonazepam,"Colourless, Yellow",Tablet,Not Stated,Not Stated,Clonazepam,,53.4551,-2.2645
W075510,07 Apr 2026,M16,Clonazepam,elikem nozim,Blue,Tablet,Not Stated,Not Stated,Clonazepam,,53.4551,-2.2645
W075437,07 Apr 2026,BS6,Diazepam,Martin dow valium 10 (chillpharma),Blue,Tablet,Oral,"Euphoria, Increased Confidence, Breathlesness",Ethylbromazolam,,51.465599999999995,-2.599066666666667
W074760,07 Apr 2026,B26,Diazepam,MSj,Blue,Tablet,Not Stated,Not Stated,Bromazolam,,52.45953333333333,-1.7873333333333334
W075441,07 Apr 2026,CM95,MDMA,Ectasy,Yellow,Tablet,Not Stated,Not Stated,MDMA,Caffeine,51.75401111111111,0.7244388888888889
W075335,07 Apr 2026,DL8,Lorazepam,Lorazpam 1mg genesis europe,White,Tablet,Not Stated,Not Stated,Lorazepam,,54.28331891891891,-1.841241891891892
W075418,07 Apr 2026,N42,Promethazine,Promethazine ,Red,Liquid,Oral,"Enhanced Senses, Relaxed",Promethazine,,,
W075378,07 Apr 2026,AB43,Diazepam 5mg,JHL D5,Yellow,Tablet,Not Stated,Not Stated,Diazepam,,57.65489545454545,-2.046884090909091
W075462,07 Apr 2026,BT15,Diazepam,Daizepam,Blue,Tablet,Not Stated,Not Stated,Diazepam,,54.5833,-5.9333
W075440,07 Apr 2026,OL8,Diazepam,Diazepam 5mg Almus,Yellow,Tablet,Not Stated,Not Stated,Diazepam,,53.526,-2.1173
W075486,07 Apr 2026,BS16,Adderall,AD30,Orange,Tablet,Oral,Depression,Caffeine,Amphetamine,51.49088571428571,-2.5036
000236605,07 Apr 2026,CF37,ketamine,Not Stated,White,Crystalline,Not Stated,Not Stated,Ketamine,,51.613815384615386,-3.3598076923076925
000236129,01 Apr 2026,CF63,Diazepam,Diazepam,Blue,Tablet,Oral,"Increased Confidence, Relaxed, Loss of consciousness",Ethylbromazolam,,51.4172,-3.2614
W075337,01 Apr 2026,OL8,Xanax,Xanax 250 micro gram,White,Tablet,Not Stated,Not Stated,Alprazolam,,53.526,-2.1173
W075468,01 Apr 2026,AL74,Valium,Teva 10mg Valium,Blue,Tablet,Oral,"Euphoria, Increased Confidence, Relaxed",Diazepam,,51.7969,-0.1871
W075370,01 Apr 2026,CF47,Pragabalin 300mg,Not Stated,"White, Red",Capsule,Oral,Not Stated,Pregabalin,,51.7479,-3.3778
W074699,01 Apr 2026,G12,Amphetamine mix,Amphetamine mix,White,Powder,Not Stated,Not Stated,Amphetamine,,55.8804,-4.3007
W075463,01 Apr 2026,G12,Dextroamphetamine,Dextroamphetamine,,Powder,Not Stated,Not Stated,Amphetamine,,55.8804,-4.3007
W075430,01 Apr 2026,BH14,Methadone HCL,Not Stated,White,Powder,Oral,Relaxed,Methadone,,50.7299,-1.9449
W075270,01 Apr 2026,YO8,Oxycontin,Oxycontin,Yellow,Tablet,Snort / Sniff,"Euphoria, Increased Confidence",Oxycodone,,53.77469393939394,-1.0269030303030302
W075445,01 Apr 2026,M8,Zopiclone sleeping tablet,Zopiclone,Blue,Tablet,Oral,"Relaxed, Memory Loss",Zopiclone,,53.4986,-2.2385
W074758,01 Apr 2026,B26,Midazolam,Hypnofast 7.5mg ineepta,White,Tablet,Not Stated,Not Stated,Midazolam,,52.45953333333333,-1.7873333333333334
000237898,01 Apr 2026,CF33,Ketamine,Not Stated,White,Powder,Not Stated,Not Stated,Ketamine,Norketamine,51.52158333333333,-3.6971833333333337
000237899,01 Apr 2026,CF33,Ketamine,Not Stated,White,Powder,Not Stated,Not Stated,"Cocaine, Phenacetin",Norcocaine,51.52158333333333,-3.6971833333333337
W075455,31 Mar 2026,NP7,Xanax 500 micro,Xanax 500 mico viatris,Purple,Tablet,Not Stated,Not Stated,Alprazolam,,51.851292105263155,-3.0386236842105263
000237709,31 Mar 2026,CF45,Valium,Valium 10mg,Blue,,Oral,Not Stated,Diazepam,,51.66452,-3.3537
W075369,31 Mar 2026,EN2,Spice,Not Stated,White,Blotter paper,Not Stated,Not Stated,"5F-ADB, MDMB-4en-PINACA, MDMB-INACA",,51.6515,-0.085
W075376,31 Mar 2026,SR3,Diazepam,Sedil diazepam 5mg,Orange,Tablet,Not Stated,Not Stated,Diazepam,,54.874233333333336,-1.4153666666666669
W075348,31 Mar 2026,SW1,Dihyrocodeine 30mg,Accord dihydrocodeine 30mg,White,Tablet,Not Stated,Not Stated,Dihydrocodeine,,51.495583333333336,-0.1417916666666666
W075420,31 Mar 2026,NW6,Pregabalin 300mg,Not Stated,"White, Red",Liquid,Not Stated,Not Stated,Pregabalin,,51.54194444444445,-0.1931888888888888
W075291,31 Mar 2026,N7,Oxycodone,Oxycodone,Orange,Tablet,Not Stated,Not Stated,Oxycodone,,51.5491,-0.1205142857142857
W075389,31 Mar 2026,CV32,Diazepam,Diazepam,Yellow,Tablet,Not Stated,Not Stated,Diazepam,,52.303333333333335,-1.5231666666666666
W075330,31 Mar 2026,PL15,Alprazolam,Alprazolam,"White, Green",Tablet,Oral,Not Stated,Alprazolam,,50.636073333333336,-4.411035
W075321,26 Mar 2026,DY10,heroin,Not Stated,Brown,Powder,Intravenous,"Relaxed, Irregular Heartbeat, Loss of consciousness","Heroin, 6-MAM, 6-Acetylcodeine",,52.3848,-2.212788888888889
W075228,26 Mar 2026,CV2,galenika ksalol 1mg,galenika kslol 1mg,Black,Tablet,Not Stated,"Euphoria, Increased Energy, Increased Confidence, Increased Strength, Relaxed",Alprazolam,,52.424525,-1.459175
W075040,27 Mar 2026,HR14,Ampetamine speed,Not Stated,White,Powder,Not Stated,Not Stated,Caffeine,Amphetamine,52.08174186046512,-2.612990697674419
000237707,27 Mar 2026,CF40,THC vape juice,Not Stated,Yellow,Liquid,Not Stated,"Auditory Hallucinations, Irregular Heartbeat, Confusion, Violence/Aggression",5F-ADB,,51.627316666666665,-3.461883333333333
W075325,27 Mar 2026,OX49,valium,valium,Blue,Tablet,Not Stated,Not Stated,Ethylbromazolam,,51.6433,-1.0045
W074625,27 Mar 2026,RG17,Cannabis,Not Stated,"Green, Brown",Plant Matter,Smoked,"Loss of consciousness, Breathlesness",5F-ADB,,51.425623529411766,-1.488705882352941
W075302,27 Mar 2026,PL97,Sedil 5mg,Sedil 5mg,Yellow,Tablet,Not Stated,"Paranoia, Agitation",Diazepam,,50.34709090909091,-4.0945
W075296,27 Mar 2026,W36,Xanax (alpazolam),Xanax (aplazolam),Grey,Tablet,Oral,Not Stated,Alprazolam,,,
W075269,25 Mar 2026,CF31,Unknown,Not Stated,,,Not Stated,Not Stated,Cocaine,"Benzoylecgonine, Ecgonine methyl ester",51.507666666666665,-3.577733333333333
W075250,25 Mar 2026,SL,MDMA,Not Stated,White,Crystalline,Oral,"Increased Energy, Agitation",MDMA,,,
W075285,25 Mar 2026,RG10,magic mushroom tinicure extract,Not Stated,"Colourless, Yellow",Liquid,Oral,"Enhanced Senses, Empathy, Relaxed",Phenylethylamine,,51.48520769230769,-0.8407
W075248,25 Mar 2026,CV3,ketamine spray,Not Stated,Colourless,Liquid,Oral,"Increased Energy, Increased Confidence",Ketamine,"Caffeine, Nicotine",52.39113333333333,-1.4915333333333332
W075284,25 Mar 2026,CH40,Unknown,Not Stated,White,Liquid,Smoked,Not Stated,Nicotine,MDMB-INACA,53.15806666666666,-2.9534749999999996
W075286,25 Mar 2026,CH40,Unknown,Not Stated,Colourless,Liquid,Not Stated,Not Stated,Nicotine,MDMB-INACA,53.15806666666666,-2.9534749999999996
W075244,25 Mar 2026,CV1,Carisoprodol pain o soma tablet 500mg,Not Stated,White,Tablet,Oral,"Euphoria, Increased Energy, Increased Confidence",Carisoprodol,,52.4066,-1.5122
W075254,25 Mar 2026,GU14,diazepam,valium 10mg,Blue,Tablet,Not Stated,"Euphoria, Relaxed",Diazepam,,51.2955,-0.7908
W075253,25 Mar 2026,GU14,alprazolam ,alprazolam 2mg,White,Tablet,Oral,Not Stated,Lorazepam,,51.2955,-0.7908
W075193,25 Mar 2026,CM19,meth,meth,"Colourless, White",Crystalline,Not Stated,Not Stated,Methamphetamine,,51.762699999999995,0.0569666666666666
W075201,25 Mar 2026,MK18,Diazepam,Diazepam,Yellow,Tablet,Not Stated,Not Stated,Diazepam,,51.968651515151514,-0.965221212121212
W075274,25 Mar 2026,SN16,Sleep gummies for kids,Sleep gummies for kids,Purple,Solid,Oral,Not Stated,Melatonin,,51.60625263157895,-2.0715473684210526
W074088,25 Mar 2026,LV4,ketamine,Not Stated,White,Granules,Not Stated,"Euphoria, Increased Energy, Increased Confidence, Empathy, Nausea, Confusion",Ketamine,Cocaine,,
W075289,25 Mar 2026,YO13,Zopiclone ,Zopiclone,White,,Not Stated,Not Stated,Zopiclone,,54.288025000000005,-0.5161100000000001
W075034,25 Mar 2026,HR14,cocaine,Not Stated,White,Powder,Not Stated,Not Stated,Cocaine,,52.08174186046512,-2.612990697674419
W075299,25 Mar 2026,NW5,temazepam,temazepam,White,Tablet,Oral,Not Stated,Ethylbromazolam,,51.5517,-0.1413
W075177,25 Mar 2026,TD12,Zopiclone 10mg,Zopiclone - zopisign 10mg,White,Tablet,Oral,"Euphoria, Increased Confidence, Empathy, Relaxed, Memory Loss, Sweating, Nausea, Anxiety, Depression, Shaking/Shivering",Zopiclone,,55.600560869565214,-2.204578260869565
W075271,25 Mar 2026,E17,Anti cravine medication ,Not Stated,White,Tablet,Oral,"Relaxed, Visual Hallucinations, Irregular Heartbeat, Nausea, Memory Loss, Confusion, Violence/Aggression, Depression",Naltrexone,,51.58758,-0.02048
W075129,25 Mar 2026,LA1,Clonazepam,clonazepam,White,Tablet,Not Stated,Not Stated,Clonazepam,,54.0316,-2.7915
W075164,25 Mar 2026,NE11,Pregabalin,pregablin,"White, Red",Capsule,Not Stated,Not Stated,Pregabalin,,54.932825,-1.629725
W075242,25 Mar 2026,BN16,MDMA,Not Stated,"White, Yellow",Crystalline,Oral,"Euphoria, Increased Energy, Enhanced Senses, Increased Stamina, Empathy, Relaxed, Nausea",MDMA,,50.81518,-0.4855
W075322,25 Mar 2026,LL77,Zopiclone,zopiclone,White,Tablet,Oral,Not Stated,Zopiclone,,53.27263333333334,-4.3066
W075232,25 Mar 2026,CV1,Aspadol tab 100mg tapendadol,Not Stated,Orange,Tablet,Oral,"Euphoria, Increased Energy",Carisoprodol,,52.4066,-1.5122
W075230,25 Mar 2026,CV1,galenika rivotril 2mg,Not Stated,White,Tablet,Oral,"Euphoria, Increased Confidence",Clonazepam,,52.4066,-1.5122
W075229,25 Mar 2026,CV2,Clonazepam 2mg,Not Stated,White,Tablet,Oral,"Euphoria, Relaxed",Clonazepam,,52.424525,-1.459175
W075207,25 Mar 2026,SE01,2mmc,2mmc,Colourless,Crystalline,Not Stated,Not Stated,2-Methylmethcathinone,,,
W075100,25 Mar 2026,PR3,Klonopin,Rivotril 2mg,White,Tablet,Not Stated,Not Stated,Clonazepam,,53.903882857142854,-2.707102857142857
W075225,25 Mar 2026,PA23,valium,Martin dow 10mg,Blue,Tablet,Oral,"Relaxed, Chest Pains",Diazepam,,55.988997142857144,-4.98592
W075310,25 Mar 2026,B30,Dexamphetamine sulphate,Nddritalin 1,White,Tablet,Not Stated,Not Stated,Amphetamine,,52.4167,-1.9167
W075311,25 Mar 2026,B30,Cocaine,Open line,White,Powder,Not Stated,Not Stated,Cocaine,,52.4167,-1.9167
W075312,24 Mar 2026,B30,ketamine,Open line,White,Granules,Not Stated,Not Stated,Ketamine,,52.4167,-1.9167
W075315,25 Mar 2026,B30,Ritalin,Alaradate,Yellow,Tablet,Not Stated,Not Stated,Methylphenidate,,52.4167,-1.9167
W075316,25 Mar 2026,B30,Alprazolam,Replek,Blue,Tablet,Not Stated,Not Stated,Alprazolam,,52.4167,-1.9167
W075314,25 Mar 2026,B30,Ecstacy,gas mask (mankind),Blue,Tablet,Not Stated,Not Stated,MDMA,,52.4167,-1.9167
W075313,25 Mar 2026,B30,Ecstasy,Gas mask (mankind),Green,Tablet,Not Stated,Not Stated,MDMA,,52.4167,-1.9167
W075317,25 Mar 2026,B30,Valium (diazepam),Martin dow,Blue,Tablet,Not Stated,Not Stated,Diazepam,,52.4167,-1.9167
W075320,25 Mar 2026,LL77,Zopiclone,Zopiclone,White,Tablet,Not Stated,Not Stated,Zopiclone,,53.27263333333334,-4.3066
W075241,25 Mar 2026,CV2,pregabalin 300mg,Not Stated,"White, Red",Capsule,Oral,"Euphoria, Increased Energy",Pregabalin,,52.424525,-1.459175
W075247,25 Mar 2026,CV2,bensedin diazepam 10mg,Not Stated,White,Tablet,Oral,"Euphoria, Increased Confidence, Enhanced Senses, Increased Energy",Diazepam,,52.424525,-1.459175
W075239,25 Mar 2026,CV2,galenika ksalol 1mg,Not Stated,Blue,Tablet,Oral,"Euphoria, Increased Confidence, Increased Energy",Alprazolam,,52.424525,-1.459175
W075252,25 Mar 2026,CV2,Tapenatadol Tablet apple 100mg,Not Stated,Red,Tablet,Oral,"Euphoria, Increased Energy, Increased Confidence",Tapentadol,,52.424525,-1.459175
W075195,25 Mar 2026,G3,2cb,Nasa rocket,"Orange, Pink",Tablet,Not Stated,Not Stated,2C-B,,55.8651,-4.2576
W075194,25 Mar 2026,G3,Cocaine,1ce,White,Powder,Not Stated,Not Stated,Cocaine,"Norcocaine, Benzoylecgonine",55.8651,-4.2576
W075200,25 Mar 2026,DH11,Opioid,#4 opioid,White,Solid,Not Stated,Not Stated,"Heroin, Morphine, 6-Acetylcodeine, Noscapine","Papaverine, Caffeine",54.77482,-1.56714
W075103,24 Mar 2026,PR3,Klonapin,Rivotril 2mg,White,Tablet,Not Stated,Not Stated,Clonazepam,,53.903882857142854,-2.707102857142857
W075101,24 Mar 2026,PR3,Klonopin,rivotril 2mg,White,Tablet,Not Stated,Not Stated,Clonazepam,,53.903882857142854,-2.707102857142857
W075235,24 Mar 2026,CF14,Lorazepam ,nerodelm-z lorazepam,Yellow,Tablet,Not Stated,Not Stated,Lorazepam,,51.5199,-3.204
W075276,24 Mar 2026,TS3,vape,Not Stated,Yellow,Liquid,Oral,No Effect,Nicotine,,54.562099999999994,-1.1877666666666666
W075238,24 Mar 2026,KT24,10mg diazepam,roche/martin dow,Blue,Tablet,Not Stated,Not Stated,Diazepam,,51.26846666666667,-0.4284666666666667
W075189,24 Mar 2026,YO11,Diazepam 5mg,diazepam 5mg,Yellow,Tablet,Oral,Relaxed,Diazepam,,54.23711428571429,-0.3853571428571428
W075260,24 Mar 2026,CW9,lorazepam 2.5mg,hemofarm,Blue,,Not Stated,Not Stated,Lorazepam,,53.264406666666666,-2.5003200000000003
W075258,24 Mar 2026,CW9,valium,martin dow -a,Blue,,Not Stated,Not Stated,Diazepam,,53.264406666666666,-2.5003200000000003
W075259,24 Mar 2026,CW9,Valium,Martin dow -b,Blue,,Not Stated,Not Stated,Diazepam,,53.264406666666666,-2.5003200000000003
W075282,24 Mar 2026,MK1,Amphetamine,Amphetamine,White,Powder,Not Stated,No Effect,Caffeine,Amphetamine,52.0075,-0.7271
W075227,24 Mar 2026,KT24,1mg alprazolam,Galenika ksalol,"White, Blue",Tablet,Not Stated,Not Stated,Alprazolam,,51.26846666666667,-0.4284666666666667
W075233,24 Mar 2026,KT24,1mg alprazolam,Galenika ksalol,"White, Blue",Tablet,Not Stated,Not Stated,Alprazolam,,51.26846666666667,-0.4284666666666667
W075226,24 Mar 2026,KT24,10mg diazepam,galenika bensedin,White,Tablet,Not Stated,Not Stated,Diazepam,,51.26846666666667,-0.4284666666666667
W075214,24 Mar 2026,L8,Diazepam,Diazepam accord 5mg,Yellow,Tablet,Oral,"Relaxed, Dizziness",Diazepam,,53.4106,-2.9779
W075240,24 Mar 2026,KT24,10mg valium,roche/marin dow,Blue,Tablet,Not Stated,Not Stated,Diazepam,,51.26846666666667,-0.4284666666666667
W075208,24 Mar 2026,W1,Zopiderm 10mg,Zol fresh 10,White,Tablet,Not Stated,Not Stated,Zolpidem,,51.50121428571428,-0.0986428571428571
W075223,24 Mar 2026,CB10,Alprazolam 1mg,LCm xanax 1mg,Blue,Tablet,Oral,Relaxed,Alprazolam,,52.03342941176471,0.2682294117647059
W075231,24 Mar 2026,KT24,10mg diazepam,Galenika bensedin,White,Tablet,Not Stated,Not Stated,Diazepam,,51.26846666666667,-0.4284666666666667
W075165,24 Mar 2026,TS18,Spice,Not Stated,Green,Plant Matter,Not Stated,Not Stated,MDMB-4en-PINACA,,54.5613,-1.3243
000231929,24 Mar 2026,SY16,Unknown,Not Stated,"White, Yellow",Powder,Oral,"Nausea, Paranoia, Memory Loss, Confusion, Loss of consciousness",Amitriptyline,,52.50787647058824,-3.3015823529411765
W075186,24 Mar 2026,YO11,Zopiclone,Zopiclone,Blue,Tablet,Oral,"Relaxed, Memory Loss",Zopiclone,,54.23711428571429,-0.3853571428571428
W075188,24 Mar 2026,LU6,Xanax 500 Microgram,Xanax Alprazolam viatris 500 microgram,Pink,Tablet,Not Stated,Not Stated,Alprazolam,,51.8686,-0.5463600000000001
W075159,24 Mar 2026,SA12,Diazepam 10mg MSJ,MSj,Blue,Tablet,Oral,Relaxed,Ethylbromazolam,,51.61181666666667,-3.7703
W075161,24 Mar 2026,SA12,Daizepam 10mg MSJ,Diazepam 10mg MSJ,Blue,Tablet,Oral,"Relaxed, Nausea, Memory Loss, Confusion",Ethylbromazolam,,51.61181666666667,-3.7703
W075032,24 Mar 2026,F31E,Diazepam,Not Stated,Blue,Tablet,Not Stated,Not Stated,Diazepam,,,
100004538,24 Mar 2026,SY16,Cocaine,Not Stated,White,Powder,"Snort / Sniff, Intravenous",Not Stated,Cocaine,,52.50787647058824,-3.3015823529411765
W075149,24 Mar 2026,SO51,ketamine,S+ ketamine,"Colourless, White",Crystalline,Snort / Sniff,"Increased Libido, Relaxed, Memory Loss",Ketamine,,51.01539047619048,-1.494095238095238
000238834,24 Mar 2026,CF83,Cocaine,Cocain,"White, White",Powder,Snort / Sniff,Headache,Cocaine,,51.59288333333333,-3.2333833333333337
000238830,24 Mar 2026,CF10,Cocaine,Cocain,,,Snort / Sniff,"Nosebleeds, Nausea",Cocaine,,51.48,-3.18
W074943,24 Mar 2026,91010,"Pain relief, d/t lumbar stenosis",trakem-100 shree shaym enterprise,White,Tablet,Oral,Not Stated,Tramadol,,,
W075049,24 Mar 2026,PR76,Diazepam,Diazepam,Blue,Tablet,Not Stated,Not Stated,Ethylbromazolam,,53.64461428571428,-2.6670142857142856
W074700,24 Mar 2026,G12,Lisdexamfetamine,lisdexamfetamine (sweden),"White, Purple",Powder,Not Stated,Not Stated,Amphetamine,,55.8804,-4.3007
W075174,24 Mar 2026,SO51,Cocaine,Wispa cocaine,White,Powder,Not Stated,Not Stated,Cocaine,Norcocaine,51.01539047619048,-1.494095238095238
W075175,24 Mar 2026,SO51,diazepam,Pingu valium,Blue,Tablet,Not Stated,Not Stated,Ethylbromazolam,,51.01539047619048,-1.494095238095238
W075083,24 Mar 2026,PL15,2cb,Not Stated,Pink,Powder,Not Stated,Not Stated,"Ketamine, MDMA",,50.636073333333336,-4.411035
W075080,24 Mar 2026,PL15,MDMA,Not Stated,Yellow,Tablet,Not Stated,Not Stated,MDMA,,50.636073333333336,-4.411035
W075086,24 Mar 2026,PL15,MDMA,Not Stated,"White, Brown",Crystalline,Not Stated,Not Stated,MDMA,,50.636073333333336,-4.411035
W075192,24 Mar 2026,BN23,Oxycodone 30mg,Not Stated,White,,Oral,Not Stated,Dihydrocodeine,,50.7977,0.3125
W075089,24 Mar 2026,CM16,Amphetamine sulfate,speed,White,Powder,Not Stated,Not Stated,Amphetamine,,51.70625555555556,0.1061333333333333
W075033,24 Mar 2026,F31E,Alprazolam,Not Stated,Blue,,Not Stated,Not Stated,Alprazolam,,,
W075079,24 Mar 2026,PL15,2cb,Not Stated,"Brown, Brown",Tablet,Not Stated,Not Stated,MDMA,,50.636073333333336,-4.411035
W075156,24 Mar 2026,BS2,Pregabalin,Pregabalin,"White, Red",Tablet,Not Stated,Not Stated,Pregabalin,,51.4552,-2.5966
W075153,24 Mar 2026,BS2,Pregabalin,Nautron,"White, Red",Capsule,Not Stated,Not Stated,Pregabalin,,51.4552,-2.5966
W075196,24 Mar 2026,PE28,klonopin,Clonazepam,White,Tablet,Oral,"Euphoria, Increased Confidence, Relaxed, Nausea, Dizziness",Clonazepam,,52.3305,-0.1865
W075199,24 Mar 2026,PE28,Ketamine,Not Stated,White,Solid,Not Stated,Not Stated,"Caffeine, Amphetamine",,52.3305,-0.1865
W074618,24 Mar 2026,WC2,Unknown,Not Stated,Blue,Tablet,Not Stated,Not Stated,MDMA,,51.5134,-0.1233818181818181
W075084,24 Mar 2026,PL15,MDMA,Not Stated,"Grey, Brown",Powder,Not Stated,Not Stated,MDMA,,50.636073333333336,-4.411035
W075142,24 Mar 2026,HU55,MSJ diazepam,Msj,Blue,Tablet,Oral,Not Stated,Ethylbromazolam,,53.7603,-0.3758
W075119,24 Mar 2026,LS4,MDMA,Duke Nukem,"Orange, Green",Tablet,Not Stated,Not Stated,MDMA,,53.8103,-1.5846
W075109,24 Mar 2026,N128,Alprazolam,Alprazolam,White,Tablet,Not Stated,"Relaxed, Memory Loss, Agitation",Tramadol,,51.6077,-0.166
W075076,20 Mar 2026,SW1,Diazepam,Not Stated,White,Tablet,Not Stated,Not Stated,Zopiclone,,51.495583333333336,-0.1417916666666666
W075057,20 Mar 2026,NE21,THC liquid,Not Stated,Purple,Liquid,Not Stated,Not Stated,MDMB-4en-PINACA,,54.9583,-1.718925
W075184,24 Mar 2026,NE32,vape oil,Not Stated,Purple,Liquid,Smoked,"Visual Hallucinations, Paranoia, Memory Loss, Confusion, Panic Attack, Loss of consciousness, Agitation, Dizziness, Sweating",MDMB-4en-PINACA,Nicotine,54.974050000000005,-1.4842499999999998
W075150,24 Mar 2026,BS2,Clonazepam,Clonazepam,Yellow,Tablet,Not Stated,Not Stated,Clonazepam,,51.4552,-2.5966
000236135,24 Mar 2026,CF62,Daizepam,Diazepam tablets,Blue,Tablet,Oral,Not Stated,Ethylbromazolam,,51.4027,-3.37145
W075152,20 Mar 2026,BS2,Zopiclone,Not Stated,Blue,Tablet,Not Stated,Not Stated,Zopiclone,,51.4552,-2.5966
W075082,20 Mar 2026,PL15,2cb,Not Stated,"Orange, Blue",Tablet,Not Stated,Not Stated,MDMA,,50.636073333333336,-4.411035
W075157,20 Mar 2026,SA13,diazepam 10mg,diazepam 10mg,Blue,Tablet,Oral,Relaxed,Diazepam,,51.63321111111111,-3.670888888888888
W075141,20 Mar 2026,NW7,30mg v48/12 oxycodone pill,v48/12 blue pill chapd drughub,Blue,Tablet,Snort / Sniff,"Euphoria, Relaxed, Breathlesness, Irregular Heartbeat, Nausea, Vomiting, Memory Loss, Confusion, Loss of consciousness",Medetomidine,AB-MDMSBA,51.6094,-0.2273
W075123,20 Mar 2026,NN11,MDMA,Not Stated,"Colourless, White",Crystalline,"Oral, Snort / Sniff","Euphoria, Increased Confidence, Enhanced Senses, Increased Libido, Empathy, Auditory Hallucinations, Irregular Heartbeat, Nosebleeds, Nausea, Vomiting, Loss of consciousness, Depression, Suicidal Ideation",MDMA,,52.21614,-1.179288
W075081,20 Mar 2026,PR76,Diazepam,diazepam,White,Tablet,Not Stated,Not Stated,Diazepam,,53.64461428571428,-2.6670142857142856
W075107,20 Mar 2026,PH18,Cocaine,Not Stated,White,Solid,Not Stated,Not Stated,Cocaine,,56.75799000000001,-3.92878
000234045,20 Mar 2026,CF14,Spice,Spice,Green,Plant Matter,Not Stated,"Relaxed, Nausea, Paranoia, Memory Loss, Confusion, Agitation, Insomnia, Suicidal Ideation","MDMB-4en-PINACA, Nicotine",,51.5199,-3.204
W075138,20 Mar 2026,M22,3d-MXe,3d-mxe,Grey,Tablet,Not Stated,Not Stated,Deoxymethoxetamine,,53.3861,-2.2599
W075139,20 Mar 2026,M22,5-MED-DMT,5-MED-DMT,Brown,Crystalline,Not Stated,Not Stated,5-MeO-DMT,,53.3861,-2.2599
W075137,20 Mar 2026,M22,ICP-MIPLA,ICP-MIPLA,Yellow,Blotter paper,Not Stated,Not Stated,Unable to identify,,53.3861,-2.2599
W075136,20 Mar 2026,M22,ICP- LSD,ICP- LSD,White,Blotter paper,Not Stated,Not Stated,Unable to identify,,53.3861,-2.2599
W074980,20 Mar 2026,BS3,MDMA,Not Stated,Pink,Solid,Oral,"Euphoria, Increased Energy, Enhanced Senses, Increased Stamina, Auditory Hallucinations, Relaxed, Insomnia, Nausea, Confusion, Panic Attack",MDMA,,51.4552,-2.5966
W075127,20 Mar 2026,NN11,Speed,Not Stated,"White, Yellow",Powder,Snort / Sniff,"Increased Confidence, Increased Energy, Increased Stamina, Chest Pains, Nausea","Ketamine, Caffeine",,52.21614,-1.179288
W075108,20 Mar 2026,SA15,THC vape juice,Not Stated,Yellow,Tablet,Smoked,"Euphoria, Enhanced Senses, Relaxed, Confusion",5F-ADB,,51.74003,-4.187250000000001
W074911,20 Mar 2026,NE63,Diazepam 10mg martin dow,diazepam 10mg martin dow,Blue,Tablet,Oral,Relaxed,Diazepam,,55.16816666666667,-1.5594
W075120,20 Mar 2026,BT47,bensedin diazepam,bensedin diazepam,White,Tablet,Oral,"Relaxed, Memory Loss, Confusion, Loss of consciousness",Diazepam,,54.94983333333333,-7.084177777777778
W075128,20 Mar 2026,CF33,30/500 cocodamol,30/500 cocodamol,White,Tablet,Not Stated,Not Stated,"Paracetamol, Codeine",,51.52158333333333,-3.6971833333333337
W074788,20 Mar 2026,TS12,Diazepam,Bensedin diazepam 10mg,White,Tablet,Not Stated,Not Stated,Diazepam,,54.5516,-0.963011111111111
W075088,20 Mar 2026,EH36,Ecstasy,ecstasy,Yellow,Tablet,Not Stated,Not Stated,"2C-B, 2C-H",,55.8547,-2.8654
W075062,20 Mar 2026,SA12,Valium,Not Stated,Blue,Tablet,Oral,Not Stated,Diazepam,,51.61181666666667,-3.7703
W075060,20 Mar 2026,SA12,pregabalin,PGBN,"White, Brown",Capsule,Oral,Not Stated,Pregabalin,,51.61181666666667,-3.7703
W075126,20 Mar 2026,NN11,MDA/MDMA,Not Stated,Brown,Powder,"Oral, Snort / Sniff","Euphoria, Increased Energy, Increased Confidence, Nausea, Vomiting, Insomnia",MDMA,,52.21614,-1.179288
W075125,20 Mar 2026,NN11,Diazepam, Actavis 10mg,Blue,Tablet,Oral,"Relaxed, Memory Loss, Confusion",MDMA,Paracetamol,52.21614,-1.179288
W075091,20 Mar 2026,G12,Lisdexamphetamine,60mg elvanse 's489 60mg',Blue,Capsule,Not Stated,Not Stated,Lisdexamfetamine,,55.8804,-4.3007
W075090,20 Mar 2026,G12,Zolpidem,Hemofarm belien zolpidem 10mg film tablet ,White,Tablet,Not Stated,Not Stated,Zolpidem,,55.8804,-4.3007
W075065,20 Mar 2026,E2,Tramadol,Tamol -x Tramadol 100mg,"Green, Yellow",Capsule,Not Stated,Not Stated,Pregabalin,,51.5386,-0.055525
W075105,20 Mar 2026,LL11,Diazepam,bensedin,White,Tablet,Oral,"Increased Confidence, Relaxed, Chest Pains, Irregular Heartbeat, Paranoia, Agitation",Diazepam,,53.064506666666674,-3.052973333333333
W075052,20 Mar 2026,LE2,Xanax,Xanax,Yellow,Tablet,Oral,No Effect,Chlorpheniramine,,52.60181666666667,-1.1167166666666668
W075122,20 Mar 2026,NN11,Tusi,Not Stated,Pink,Powder,Not Stated,No Effect,"Ketamine, Cocaine, MDMA",,52.21614,-1.179288
W075106,20 Mar 2026,SK14,teva Codeine 30mg,Teva Codeine 30mg,White,Tablet,Not Stated,Not Stated,Codeine,,53.45065,-2.04802
W075041,20 Mar 2026,HD4,daizepam,Diazpam accord 10mg,Blue,Tablet,Not Stated,Not Stated,Diazepam,,53.6239,-1.7485
W075078,20 Mar 2026,NW10,Diazepam,Diazepam,"White, Blue",Tablet,Oral,No Effect,Ethylbromazolam,,51.53758571428572,-0.2431214285714285
W075094,20 Mar 2026,W8,Tramadol ,Tramadol 50mg bristol labs,"Green, Yellow",Capsule,Not Stated,Not Stated,Tramadol,,51.501125,-0.1985
W075097,20 Mar 2026,W8,Tramadol,Tramadol 50mg bristol labs,"Yellow, Green",Capsule,Not Stated,Not Stated,Tramadol,,51.501125,-0.1985
W075118,20 Mar 2026,B153,Amoxycillin 500mg,Amoxycillin 500mg,Yellow,Capsule,Oral,No Effect,Amoxicillin,,52.4623,-1.9212
W075111,20 Mar 2026,EH10,tapentadol - 100mg,tapentadol 100mg,Orange,Tablet,Not Stated,Not Stated,Tapentadol,,55.91466666666667,-3.2046333333333337
W075114,20 Mar 2026,EH10,zolpidem -10mg,zolpidem - 10mg,,Tablet,Not Stated,Not Stated,Zolpidem,,55.91466666666667,-3.2046333333333337
W075113,20 Mar 2026,EH10,diazepam - 10mg,diazepam - 10mg,,Tablet,Not Stated,Not Stated,Diazepam,,55.91466666666667,-3.2046333333333337
W075112,20 Mar 2026,EH10,alprazolam - 1mg,alprazolam - 1mg,Colourless,Tablet,Not Stated,Not Stated,Alprazolam,,55.91466666666667,-3.2046333333333337
W075077,20 Mar 2026,SW17,valium (diazepam) ,valium (diazepam) martin dow limited,Blue,Tablet,Not Stated,Not Stated,Diazepam,,51.4307,-0.1647
000237895,20 Mar 2026,CF72,diazepam,valium,Blue,Tablet,Oral,"Relaxed, Paranoia, Agitation",Diazepam,,51.530146153846154,-3.408415384615384
W075058,20 Mar 2026,S6215L,THC ,NOT LABELLED CLEAR BOTTLE ,Orange,Liquid,Smoked,"No Effect, Euphoria, Increased Energy, Increased Confidence, Increased Stamina, Increased Libido, Increased Strength, Enhanced Senses, Empathy, Auditory Hallucinations, Visual Hallucinations, Relaxed, Chest Pains, Irregular Heartbeat, Panic Attack",Nicotine,,53.464725,-1.364075
W075064,20 Mar 2026,KT9,DIAZEPAM,BENSEDIN,White,Tablet,Oral,Relaxed,Diazepam,,51.365199999999994,-0.3054
W075070,20 Mar 2026,CF24,4-MMC,Not Stated,"Colourless, Brown",Crystalline,Not Stated,Not Stated,Mephedrone,,51.48,-3.18
W075068,20 Mar 2026,CF24,LIQUID MDMA,Not Stated,Colourless,Liquid,Not Stated,Not Stated,Gamma-butyrolactone,,51.48,-3.18
000236494,20 Mar 2026,NP4,UNKNOWN,XANAX,Yellow,Capsule,Not Stated,Not Stated,No Active Component Identified,,51.718515789473685,-3.030521052631579
W074983,20 Mar 2026,NW7,HEROIN,TRIOLOGY CHOC - CHIP 3,Brown,Solid,"Smoked, Snort / Sniff","Euphoria, Relaxed, Nausea, Memory Loss, Confusion, Loss of consciousness","Noscapine, 6-MAM","Heroin, 6-Acetylcodeine, Papaverine, Paracetamol",51.6094,-0.2273
W075004,18 Mar 2026,W545L,LIVE RESIN CART,THC DOCTOR,Green,Liquid,Not Stated,"Euphoria, Increased Confidence, Enhanced Senses, Empathy, Relaxed","Cannabinol, Tetrahydrocannabinol",,,
000236495,20 Mar 2026,NP4,UNKNOWN,BENSEDIN,White,Capsule,Not Stated,Not Stated,Diazepam,,51.718515789473685,-3.030521052631579
000236451,20 Mar 2026,NP4,UNKNOWN,RIVOTRIL,White,Tablet,Not Stated,Not Stated,Clonazepam,,51.718515789473685,-3.030521052631579
000236452,20 Mar 2026,NP4,unknown,DMT,Yellow,Crystalline,Smoked,"Euphoria, Enhanced Senses, Auditory Hallucinations, Visual Hallucinations",DMT,,51.718515789473685,-3.030521052631579
W075099,20 Mar 2026,W8,dihydrocodeine ,dihydrocodeine 30mg accord ,White,Tablet,Not Stated,Not Stated,Dihydrocodeine,,51.501125,-0.1985
W075095,20 Mar 2026,W8,TRAMADOL,TRAMADOL 50MG BRISTOL LABS ,"Green, Yellow",Capsule,Not Stated,Not Stated,Tramadol,,51.501125,-0.1985
W075098,20 Mar 2026,W8,DIHYDROCODEINE ,DIHYDROCODEINE 30MG ACCORD,White,Tablet,Not Stated,Not Stated,Dihydrocodeine,,51.501125,-0.1985
000238832,20 Mar 2026,CF83,SUSPECTED ANAVAR 50MG,ANAVAR,White,Tablet,Oral,Not Stated,Oxandrolone,,51.59288333333333,-3.2333833333333337
000239558,18 Mar 2026,NP22,FOUND IN COAT POCKET,Not Stated,Colourless,Liquid,Not Stated,"Increased Energy, Nausea, Vomiting",No Active Component Identified,,51.7725,-3.2468
W074987,18 Mar 2026,OL1,NAPROXEN SODIUM,NAPROSYN SODIUM,White,Tablet,Not Stated,Not Stated,Naproxen,,53.5405,-2.1183
W075013,18 Mar 2026,DN7,spice/K2,Not Stated,"Colourless, White",Liquid,Not Stated,Not Stated,Unable to identify,,53.590025,-1.0260625
W075054,18 Mar 2026,SR20,diazepam,martin dow roche,Blue,Tablet,Not Stated,Not Stated,Diazepam,,54.8792,-1.37365
W073634,18 Mar 2026,EH54,telmisartan Q amlodipine,telmisartan Q amlodipine,"White, Blue",Tablet,Not Stated,Not Stated,Amlodipine,,55.9029,-3.5226
W074979,18 Mar 2026,DG3,PREGABLIN,PREGABLIN,White,Capsule,Oral,Not Stated,Pregabalin,,55.240758620689654,-3.7270517241379313
W075056,18 Mar 2026,G206,ZOPICLONE,MILPHARM ZOPICLONE 7.5MG ,White,Tablet,Not Stated,Not Stated,Zopiclone,,55.8906,-4.2904
W067395,18 Mar 2026,TR10,SPEED / AMPHETAMINE,Not Stated,White,Crystalline,Oral,Increased Energy,"Caffeine, Amphetamine",,50.16754,-5.11564
W075031,18 Mar 2026,DL14,ZOPICLONE,ZOPICLONE,White,Tablet,Oral,Relaxed,Zopiclone,,54.65140666666667,-1.7070933333333334
W075030,18 Mar 2026,DL14,PREGABALIN,PREGABALIN 300MG,"White, Red",Capsule,Oral,"Euphoria, Relaxed",Pregabalin,,54.65140666666667,-1.7070933333333334
W075016,18 Mar 2026,LS6,ALPRAZOLAM,ALPRAZ XR2,Yellow,Tablet,Oral,"Increased Confidence, Relaxed",No Active Component Identified,,53.8201,-1.5704
W075012,18 Mar 2026,SE1,COCAINE,CLEANED WITH ACETONE,White,Powder,Not Stated,Not Stated,Cocaine,,51.49874615384616,-0.0930384615384615
W075063,18 Mar 2026,SK13,DIAZEPAM,ACCORD 10MG DIAZEPAM ,Blue,Tablet,Not Stated,Not Stated,Diazepam,,53.4433,-1.949
W075059,18 Mar 2026,W55J,DIAZEPAM,Not Stated,White,,Not Stated,Not Stated,Paracetamol,,,
W075025,18 Mar 2026,BS2,DIAZEPAM,BENSIDIN,White,Tablet,Oral,"Increased Confidence, Relaxed",Ethylbromazolam,,51.4552,-2.5966
W075026,18 Mar 2026,BS2,DIAZEPAM,BENSIDIN,White,Tablet,Oral,"Increased Confidence, Relaxed",Ethylbromazolam,,51.4552,-2.5966
W075028,18 Mar 2026,FK12,HEROIN,Not Stated,Brown,Powder,Smoked,Relaxed,"Noscapine, Paracetamol, Caffeine, Heroin, Metonitazene","6-Acetylcodeine, Phenacetin, Papaverine",56.1528,-3.805
W075036,18 Mar 2026,B100HJ,A VAPE,DOUBLE ADDLE,Yellow,Liquid,Not Stated,Not Stated,Nicotine,,52.4698,-1.8523
W075074,18 Mar 2026,WA13,OXYCODONE,HYDROCHLORIDE,White,Tablet,Oral,Not Stated,Tramadol,,53.39149999999999,-2.46508
000236818,18 Mar 2026,CF63,cocaine,Not Stated,White,Powder,Not Stated,Not Stated,Cocaine,,51.4172,-3.2614
W074919,17 Mar 2026,G12,cocaine,F.W,White,Powder,Not Stated,Not Stated,Cocaine,Norcocaine,55.8804,-4.3007
W074956,17 Mar 2026,S21,alprax xr2 alprazolam 2mg,alprax xr2 alprazolam BP 2mg ,Yellow,Tablet,Oral,Not Stated,Alprazolam,,53.3123,-1.3394
W074957,17 Mar 2026,LS14,xanax,Not Stated,White,Tablet,Oral,"Increased Confidence, Enhanced Senses, Relaxed, Violence/Aggression",Bromazolam,,53.8486,-1.4444333333333332
W073796,17 Mar 2026,BS13,valium,martin dow,Blue,Tablet,Oral,"Euphoria, Empathy, Relaxed, Confusion",Diazepam,,51.4121,-2.612
W074930,17 Mar 2026,SA15,heroin,Not Stated,"Brown, Brown",Powder,Not Stated,"Nausea, Vomiting",No Active Component Identified,,51.74003,-4.187250000000001
000043492,17 Mar 2026,NP44 2YB,removed from student at school,elux legend nic salts,Yellow,Liquid,Smoked,Not Stated,Nicotine,,51.65070000000001,-3.0178
000236542,17 Mar 2026,CF37,benzodiazepine: clonazepam,clonazepam,Yellow,Tablet,Oral,Not Stated,Clonazepam,,51.613815384615386,-3.3598076923076925
W075010,17 Mar 2026,OX13,diazepam,valium (diazepam) 10mg martin dow,Blue,Tablet,Not Stated,Not Stated,Diazepam,,51.673544444444445,-1.3561166666666666
W075027,17 Mar 2026,EH7,xanax,xanax,White,Tablet,Oral,No Effect,Ethylbromazolam,,55.9521,-3.1965
W074972,17 Mar 2026,SY23,confiscated from pub ,Not Stated,"Green, Brown",,Not Stated,Not Stated,"Tetrahydrocannabinol, Nicotine",,52.34458541666667,-3.9885
W074920,17 Mar 2026,G12,ecstasy,marvels,"White, Grey",Powder,Not Stated,Not Stated,MDMA,,55.8804,-4.3007
000236816,17 Mar 2026,CF63,ketamine,Not Stated,White,Powder,Not Stated,"Euphoria, Relaxed",Ketamine,,51.4172,-3.2614
W075005,17 Mar 2026,NE38,VENLAFAXINE,VENLAFER 75MG,White,Tablet,Not Stated,Not Stated,Venlafaxine,,54.9,-1.5167
W074794,17 Mar 2026,NE61,VAPE LIQUID,ELUX LEGEND NIC SALTS GRAPE BERRY,Yellow,Liquid,Not Stated,Not Stated,Nicotine,,55.165690000000005,-1.7111625
W074955,17 Mar 2026,L35,KETAMIN,Not Stated,White,Powder,Not Stated,Not Stated,Ketamine,,53.411833333333334,-2.768333333333333
W074964,17 Mar 2026,DD1,pregabalin,Not Stated,Green,Capsule,Oral,"Relaxed, Paranoia, Confusion, Panic Attack, Agitation",No Active Component Identified,,56.461,-2.9766
W074894,17 Mar 2026,BD13,THC Gummies,Trolli Apple Os 600mg THC ,Green,,Oral,"Enhanced Senses, Relaxed, Irregular Heartbeat, Paranoia, Panic Attack","Cannabinol, Tetrahydrocannabinol",,53.794079999999994,-1.88974
W074952,17 Mar 2026,MK2,KETAMINE,KETAMINE,White,Powder,Not Stated,No Effect,Ketamine,,51.9968,-0.718
W074953,17 Mar 2026,MK2,SPEED,SPEED,Yellow,Powder,Not Stated,No Effect,Amphetamine,,51.9968,-0.718
W074961,13 Mar 2026,KA5,MORPHINE,Not Stated,"White, Pink",Capsule,Oral,Not Stated,Morphine,,55.4981,-4.4046199999999995
W074922,17 Mar 2026,GU16,alprazolam,galenika ksaslol 1mg,Blue,Tablet,Not Stated,Not Stated,No Active Component Identified,,51.298275,-0.71955
W074795,17 Mar 2026,SW17,2C-B,2C-B,Brown,Powder,Oral,Not Stated,2C-B,,51.4307,-0.1647
000236730,17 Mar 2026,,crack cocaine ,Not Stated,Brown,Powder,Smoked,Not Stated,Cocaine,Benzoylecgonine,0,0
000236729,17 Mar 2026,CF10,CRACK COCAINE,Not Stated,White,Tablet,Oral,Not Stated,No Active Component Identified,,51.48,-3.18
W074860,17 Mar 2026,EH12,COCAINE,Not Stated,White,Powder,Snort / Sniff,"Increased Energy, Increased Confidence, Insomnia",Cocaine,Procaine,55.9429,-3.285
W074857,17 Mar 2026,DT4,DIAZEPAM,DIAZEPAM,Blue,Tablet,Not Stated,Not Stated,Diazepam,,50.60802,-2.4613799999999997
W074951,17 Mar 2026,N66D,DIAZEPAM 10MG,NO MARKING ON TABLET,White,Tablet,Oral,"No Effect, Relaxed",Ethylbromazolam,,,
W074942,17 Mar 2026,SE15,MDMA,MDMA,"White, Brown",Crystalline,Oral,"Increased Energy, Visual Hallucinations, Confusion, Panic Attack",MDMA,,51.470175,-0.060325
W074820,17 Mar 2026,SR1,PINK COCAINE,PINK COCAINE,Pink,Granules,Not Stated,Not Stated,"Ketamine, MDMA, Cocaine","Procaine, Levamisole",54.9046,-1.3822
W074910,17 Mar 2026,SA61,CANNABIS ,Not Stated,Green,,Not Stated,Not Stated,"Tetrahydrocannabinol, Cannabigerol",,51.8017,-4.9691
W074871,17 Mar 2026,BT1,CLONAZEPAM 2MG,PSICOFARMA CLONAZEPAM 2MG,White,Tablet,Not Stated,Not Stated,Clonazepam,,54.5833,-5.9333
W074965,17 Mar 2026,KA14,NITRAZAPAM,NITRAZAPAM (ACCORD),White,Tablet,Not Stated,Not Stated,Nitrazepam,,55.7393,-4.6776
W074966,17 Mar 2026,KA14,CO-CODAMOL,CO-CODAMOL (BRISTOL),White,Tablet,Not Stated,Not Stated,"Paracetamol, Codeine",,55.7393,-4.6776
W074945,17 Mar 2026,FK7,DIAZEPAM,DIAZEPAM,Yellow,Tablet,Not Stated,Not Stated,Diazepam,,56.0861125,-3.9108875
W074926,17 Mar 2026,KY12,DIAZEPAM,Not Stated,White,Tablet,Oral,"Increased Confidence, Relaxed, Paranoia, Memory Loss, Confusion",Diazepam,,56.087095,-3.539235
000236817,17 Mar 2026,CF63,KETAMINE,Not Stated,,Powder,Not Stated,"Euphoria, Relaxed",Ketamine,,51.4172,-3.2614
W074931,17 Mar 2026,BS37 5EV,XANAX + KETAMINE,2 CLEAN ,"White, Grey",Crystalline,Snort / Sniff,"Euphoria, Empathy, Auditory Hallucinations, Visual Hallucinations, Chest Pains, Irregular Heartbeat, Nosebleeds, Nausea, Paranoia, Memory Loss, Confusion, Panic Attack, Agitation, Depression, Insomnia, Suicidal Ideation",Ketamine,,51.53419375,-2.4391125
W074974,17 Mar 2026,BN11,COCAINE,COCAINE,White,Powder,Not Stated,Not Stated,Cocaine,Norcocaine,50.81425,-0.38285
W074960,17 Mar 2026,AL5,AMPHETAMINE,Not Stated,White,Solid,Not Stated,Not Stated,"Caffeine, Amphetamine",,51.8168,-0.3571
W074924,17 Mar 2026,SG18,MDMA,Not Stated,Yellow,Granules,Oral,Not Stated,Paracetamol,,52.07824545454545,-0.2732454545454545
000236815,17 Mar 2026,CF63,KETAMINE,Not Stated,White,Powder,Snort / Sniff,"Euphoria, Relaxed",Ketamine,,51.4172,-3.2614
W074954,17 Mar 2026,DE24,ZOMORPH 100MG,ZOMORPH 100MG,White,Capsule,Oral,"No Effect, Euphoria, Increased Energy, Increased Confidence, Relaxed",Morphine,,52.89066666666667,-1.4422666666666668
W074962,17 Mar 2026,NW74,COCAINE,Not Stated,White,Powder,Not Stated,Not Stated,Cocaine,Procaine,51.6094,-0.2273
W074969,17 Mar 2026,DE1,DIAZEPAM 10MG,DIAZEPAM TERPIA 10MG COMPRIMATE,White,Tablet,Oral,Relaxed,No Active Component Identified,,52.9228,-1.4766
W074923,17 Mar 2026,PA67,DIAZEPAM ,DIAZEPAM 5MG,Yellow,Tablet,Not Stated,Relaxed,Diazepam,,56.3143,-6.232785714285714
W074870,17 Mar 2026,BT1,CLONAZEPAM 2MG,PSICOFARMA CLONAZEPAM 2MG,White,Tablet,Not Stated,Not Stated,Clonazepam,,54.5833,-5.9333
W074918,17 Mar 2026,CF48,xanax 2mg,Not Stated,White,Tablet,Not Stated,Not Stated,Methylclonazepam,,51.73028000000001,-3.37198
W074914,17 Mar 2026,OX2,paracetamol,Not Stated,Blue,Tablet,Not Stated,Not Stated,MDMA,,51.76277,-1.28794
W074915,17 Mar 2026,OX2,paracetamol,Not Stated,White,Crystalline,Not Stated,Not Stated,Ketamine,,51.76277,-1.28794
W074968,17 Mar 2026,DE1,diazepam 10mg,accord diazepam 10mg,Blue,Tablet,Oral,Relaxed,Bromazolam,,52.9228,-1.4766
W074970,17 Mar 2026,DE1,diazepam 10mg,Not Stated,Blue,Tablet,Oral,Relaxed,Diazepam,,52.9228,-1.4766
W074732,17 Mar 2026,BN17,KETAMINE,Not Stated,Colourless,Crystalline,Not Stated,Not Stated,Ketamine,,50.81636,-0.5498000000000001
W074868,17 Mar 2026,EH15 2RG,LORAZEPAM 2MG,LORAZEPAM 2MG,Pink,Tablet,Oral,Relaxed,Lorazepam,,55.948033333333335,-3.1120666666666668
W074902,17 Mar 2026,SK22,DIAZEPAM,BLUE MARTIN DOWE,Blue,,Not Stated,Not Stated,Diazepam,,53.3733,-1.9875
W074846,17 Mar 2026,KY40,HEROIN,Not Stated,Brown,Solid,Not Stated,Not Stated,"Paracetamol, Noscapine, Caffeine, Heroin, 6-MAM",,56.10405,-3.363725
W074928,17 Mar 2026,LL53,NICOTINE,NIC SALTS,Yellow,Liquid,Snort / Sniff,"Nosebleeds, Nausea, Agitation",Nicotine,,52.89524166666667,-4.493856666666668
W074734,17 Mar 2026,PL14,UNKNOWN,Not Stated,White,Tablet,Oral,Not Stated,Melatonin,,50.46451290322581,-4.464809677419355
W074903,17 Mar 2026,SK3,ZOLPIDEM (10MG),Not Stated,,,Not Stated,Not Stated,Zolpidem,,53.4098,-2.1576
W074898,17 Mar 2026,CO1,MDMA,MD,"Colourless, Yellow",Crystalline,Not Stated,Not Stated,MDMA,,51.8892,0.9042
W074897,17 Mar 2026,CO1,MCAT,NO LABEL,Brown,Powder,Not Stated,Not Stated,2C-B,,51.8892,0.9042
W074896,17 Mar 2026,CO1,4MMC,4MMC,"Colourless, White",Crystalline,Not Stated,Not Stated,Mephedrone,,51.8892,0.9042
W074895,17 Mar 2026,CO1,MDMA,NO LABEL,Colourless,Crystalline,Not Stated,Not Stated,Mephedrone,,51.8892,0.9042
W074886,17 Mar 2026,P197,MARTIN DOW DIAZEPAM 10MG,MARTIN DOW DIAZEPAM 10MG,Blue,,Oral,"Euphoria, Empathy, Relaxed, Memory Loss",Diazepam,,,
W074899,17 Mar 2026,CO1,METHYLPHENIDATE,RITALIN 10MG NOVARTIS,White,Tablet,Oral,No Effect,Methylphenidate,,51.8892,0.9042
W074884,17 Mar 2026,KT12,DIAZEPAM,DIAZPAM-10 (DIGITAL VISION),White,Tablet,Not Stated,Not Stated,Diazepam,,51.3765,-0.4111
W074916,17 Mar 2026,BS2,benzodiazepine,loose,Blue,Tablet,Not Stated,Not Stated,Bromazolam,,51.4552,-2.5966
000238603,17 Mar 2026,NP23,anavas (oxandrolone),anavar,White,Tablet,Oral,Not Stated,Oxandrolone,,51.7771,-3.2079
W072613,17 Mar 2026,FK4,valium,valium,Blue,Tablet,Oral,Not Stated,"Bromazolam, N-ethylpentedrone",,55.99558,-3.9131
W074833,17 Mar 2026,G43,n/a - found in boyfriends stash,HEP 6g,Colourless,Crystalline,Not Stated,Not Stated,N-ethylpentedrone,,55.8242,-4.2962
000233440,17 Mar 2026,LL55,PREGABLIN,PREGABLIN,"White, Red",Tablet,Oral,Not Stated,Pregabalin,,53.12915357142857,-4.195053571428572
W074927,17 Mar 2026,LL53,VAPE JUICE?,NO LABEL,Yellow,Liquid,Not Stated,"Nosebleeds, Nausea, Agitation",Nicotine,,52.89524166666667,-4.493856666666668
W074913,17 Mar 2026,SA1,DIAZEPAM,NO LABEL,Blue,Tablet,Oral,"Relaxed, Memory Loss, Confusion, Loss of consciousness",Ethylbromazolam,,51.633979999999994,-3.94848
000237985,17 Mar 2026,CF43,CANNABIS,Not Stated,Brown,Plant Matter,Smoked,Relaxed,"Cannabinol, Tetrahydrocannabinol, Nicotine",,51.66792,-3.4671
000237984,17 Mar 2026,CF43,CANNABIS,Not Stated,Green,Plant Matter,Smoked,Relaxed,"Cannabinol, Nicotine",,51.66792,-3.4671
000042528,13 Mar 2026,NP18,THC VAPE / SPICE,THC VAPE ,Yellow,Liquid,"Oral, Smoked",Not Stated,"Nicotine, 5F-ADB",,51.6084,-2.9435
000236264,13 Mar 2026,CF83,ANAVAL 10MG,VAL 10MG,Pink,Tablet,Oral,"No Effect, Nausea, Vomiting",Methandrostenolone,,51.59288333333333,-3.2333833333333337
W074752,13 Mar 2026,FY3,KETAMINE,Not Stated,"White, Yellow",Powder,Not Stated,Not Stated,Ketamine,,53.8119,-3.0226
W074751,13 Mar 2026,FY4,KETAMINE,Not Stated,White,Powder,Not Stated,Not Stated,Ketamine,,53.7911,-3.0291
W074750,13 Mar 2026,FY4,KETAMINE,Not Stated,White,Powder,Not Stated,Not Stated,Ibuprofen,,53.7911,-3.0291
W074755,13 Mar 2026,FY3,KETAMINE,Not Stated,Brown,Powder,Not Stated,Not Stated,Caffeine,,53.8119,-3.0226
W074754,13 Mar 2026,FY3,KETAMINE,Not Stated,White,Powder,Not Stated,Not Stated,Cocaine,,53.8119,-3.0226
W074753,13 Mar 2026,FY3,KETAMINE,Not Stated,White,Powder,Not Stated,Not Stated,Ketamine,,53.8119,-3.0226
W074888,13 Mar 2026,TN31,KETAMINE,Not Stated,White,Crystalline,Not Stated,Not Stated,Ketamine,,50.96017222222222,0.7006111111111112
W074889,13 Mar 2026,TN31,MDMA,Not Stated,Yellow,Crystalline,Not Stated,Not Stated,MDMA,,50.96017222222222,0.7006111111111112
W073828,10 Mar 2026,EH52,DIAZEPAM (10MG),STRIP OF 10 WITH VALIUM 10MG WRITTEN ON THE STRIP,Blue,Tablet,Oral,"Increased Energy, Increased Confidence, Relaxed, Memory Loss",Diazepam,,55.9358,-3.4882625
